date,city,country,confirmed,deaths,recovered,lat,long
3/12/20,Unknown,Afghanistan,7,0,0,33,65
3/12/20,Unknown,Albania,23,1,0,41.1533,20.1683
3/12/20,Unknown,Algeria,24,1,8,28.0339,1.6596
3/12/20,Unknown,Andorra,1,0,1,42.5063,1.5218
3/12/20,Unknown,Argentina,19,1,0,-38.4161,-63.6167
3/12/20,Unknown,Armenia,4,0,0,40.0691,45.0382
3/12/20,Unknown,Austria,302,1,4,47.5162,14.5501
3/12/20,Unknown,Azerbaijan,11,0,3,40.1431,47.5769
3/12/20,Unknown,Bahrain,195,0,35,26.0275,50.55
3/12/20,Unknown,Bangladesh,3,0,0,23.685,90.3563
3/12/20,Unknown,Belarus,12,0,3,53.7098,27.9534
3/12/20,Brussels,Belgium,314,3,1,50.8333,4
3/12/20,Unknown,Bhutan,1,0,0,27.5142,90.4336
3/12/20,Unknown,Bolivia,2,0,0,-16.2902,-63.5887
3/12/20,Unknown,Bosnia and Herzegovina,11,0,0,43.9159,17.6791
3/12/20,Unknown,Brazil,52,0,0,-14.235,-51.9253
3/12/20,Unknown,Brunei,11,0,0,4.5353,114.7277
3/12/20,Unknown,Bulgaria,7,1,0,42.7339,25.4858
3/12/20,Unknown,Burkina Faso,2,0,0,12.2383,-1.5616
3/12/20,Kampong Chhnang,Cambodia,3,0,1,12.5657,104.991
3/12/20,Unknown,Cameroon,2,0,0,3.848,11.5021
3/12/20,Unknown,Chile,23,0,0,-35.6751,-71.543
3/12/20,Unknown,Colombia,9,0,0,4.5709,-74.2973
3/12/20,Unknown,Congo (Kinshasa),1,0,0,-4.0383,21.7587
3/12/20,Unknown,Costa Rica,22,0,0,9.7489,-83.7534
3/12/20,Unknown,Cote d'Ivoire,1,0,0,7.54,-5.5471
3/12/20,Unknown,Croatia,19,0,0,45.1667,15.5
3/12/20,Unknown,Cuba,3,0,0,22,-80
3/12/20,Unknown,Cyprus,6,0,0,35.1264,33.4299
3/12/20,Unknown,Dominican Republic,5,0,0,18.7357,-70.1627
3/12/20,Unknown,Ecuador,17,0,0,-1.8312,-78.1834
3/12/20,Unknown,Egypt,67,1,27,26,30
3/12/20,Unknown,Estonia,16,0,0,58.5953,25.0136
3/12/20,Kajaani,Finland,59,0,1,64,26
3/12/20,Unknown,French Guiana,5,0,0,3.9339,-53.1258
3/12/20,Unknown,Georgia,24,0,0,42.3154,43.3569
3/12/20,Kassel,Germany,2078,3,25,51,9
3/12/20,Unknown,Greece,99,1,0,39.0742,21.8243
3/12/20,Unknown,Guyana,1,1,0,5,-58.75
3/12/20,Unknown,Holy See,1,0,0,41.9029,12.4534
3/12/20,Unknown,Honduras,2,0,0,15.2,-86.2419
3/12/20,Unknown,Hungary,13,0,0,47.1625,19.5033
3/12/20,Unknown,Iceland,103,0,1,64.9631,-19.0208
3/12/20,Nagpur,India,73,1,4,21,78
3/12/20,Unknown,Indonesia,34,1,2,-0.7893,113.9213
3/12/20,Unknown,Iraq,71,8,15,33,44
3/12/20,Unknown,Ireland,43,1,0,53.1424,-7.6921
3/12/20,Unknown,Israel,131,0,4,31,35
3/12/20,Arezzo,Italy,12462,827,1045,43,12
3/12/20,Unknown,Jamaica,2,0,0,18.1096,-77.2975
3/12/20,Unknown,Jordan,1,0,0,31.24,36.51
3/12/20,Daegu,South Korea,7869,66,333,36,128
3/12/20,Unknown,Kuwait,80,0,5,29.5,47.75
3/12/20,Unknown,Latvia,10,0,1,56.8796,24.6032
3/12/20,Unknown,Lebanon,61,3,1,33.8547,35.8623
3/12/20,Unknown,Liechtenstein,1,0,0,47.14,9.55
3/12/20,Unknown,Lithuania,3,0,0,55.1694,23.8813
3/12/20,Unknown,Luxembourg,19,0,0,49.8144,6.1317
3/12/20,Sibu,Malaysia,149,0,26,2.5,112.5
3/12/20,Unknown,Maldives,8,0,0,3.2028,73.2207
3/12/20,Unknown,Malta,6,0,0,35.9375,14.3754
3/12/20,Unknown,Martinique,3,0,0,14.6415,-61.0242
3/12/20,Fresnillo,Mexico,12,0,4,23,-102
3/12/20,Unknown,Moldova,3,0,0,47.4116,28.3699
3/12/20,Unknown,Monaco,2,0,0,43.7333,7.4167
3/12/20,Unknown,Mongolia,1,0,0,46.8625,103.8467
3/12/20,Unknown,Morocco,6,1,0,31.7917,-7.0926
3/12/20,Pokhara,Nepal,1,0,1,28.3949,84.124
3/12/20,Unknown,Netherlands,503,5,0,52.1326,5.2913
3/12/20,Unknown,New Zealand,5,0,0,-40.9006,174.886
3/12/20,Unknown,Nigeria,2,0,0,9.082,8.6753
3/12/20,Unknown,North Macedonia,7,0,0,41.6086,21.7453
3/12/20,Unknown,Norway,702,0,1,60.472,8.4689
3/12/20,Unknown,occupied Palestinian territory,0,0,0,31.9522,35.2332
3/12/20,Dawwah,Oman,18,0,9,21,57
3/12/20,Quetta,Pakistan,20,0,2,30.3753,69.3451
3/12/20,Unknown,Panama,11,1,0,8.538,-80.7821
3/12/20,Unknown,Paraguay,5,0,0,-23.4425,-58.4438
3/12/20,Unknown,Peru,15,0,0,-9.19,-75.0152
3/12/20,Boac,Philippines,52,2,2,12.8797,121.774
3/12/20,Unknown,Poland,49,1,0,51.9194,19.1451
3/12/20,Unknown,Portugal,59,0,0,39.3999,-8.2245
3/12/20,Unknown,Qatar,262,0,0,25.3548,51.1839
3/12/20,Reunion,France,1,0,0,-21.1151,55.5364
3/12/20,Reunion,Romania,49,0,6,46,25
3/12/20,Unknown,Russia,28,0,3,60,90
3/12/20,Unknown,San Marino,69,3,0,43.9424,12.4578
3/12/20,Unknown,Saudi Arabia,45,0,1,24,45
3/12/20,Unknown,Senegal,4,0,1,14.4974,-14.4524
3/12/20,Unknown,Serbia,19,0,0,44.0165,21.0059
3/12/20,Singapore,Singapore,178,0,96,1.2833,103.8333
3/12/20,Unknown,Slovakia,16,0,0,48.669,19.699
3/12/20,Unknown,Slovenia,89,0,0,46.1512,14.9955
3/12/20,Unknown,South Africa,17,0,0,-30.5595,22.9375
3/12/20,Madrid,Spain,2277,55,183,40,-4
3/12/20,Unknown,Sri Lanka,2,0,1,7.8731,80.7718
3/12/20,Unknown,Sweden,599,1,1,63,16
3/12/20,Unknown,Switzerland,652,4,4,46.8182,8.2275
3/12/20,Lop Buri,Thailand,70,1,34,15.87,100.9925
3/12/20,Unknown,Togo,1,0,0,8.6195,0.8248
3/12/20,Unknown,Tunisia,7,0,0,33.8869,9.5375
3/12/20,Unknown,Turkey,1,0,0,38.9637,35.2433
3/12/20,Unknown,Ukraine,1,0,0,48.3794,31.1656
3/12/20,Hubei,China,67781,3056,50318,30.9756,112.2707
3/12/20,Khomeyni Shahr,Iran,10075,429,2959,32,53
3/12/20,France,France,2281,48,12,46.2276,2.2137
3/12/20,Guangdong,China,1356,8,1289,23.3417,113.4244
3/12/20,Henan,China,1273,22,1249,33.882,113.614
3/12/20,Zhejiang,China,1215,1,1197,29.1832,120.0934
3/12/20,Hunan,China,1018,4,999,27.6104,111.7088
3/12/20,Anhui,China,990,6,984,31.8257,117.2264
3/12/20,Jiangxi,China,935,1,934,27.614,115.7221
3/12/20,Shandong,China,760,6,734,36.3427,118.1498
3/12/20,Diamond Princess,Cruise Ship,696,7,325,35.4437,139.638
3/12/20,Tokyo,Japan,639,16,118,36,138
3/12/20,Jiangsu,China,631,0,629,32.9711,119.455
3/12/20,Denmark,Denmark,615,0,1,56.2639,9.5018
3/12/20,Chongqing,China,576,6,564,30.0572,107.874
3/12/20,Sichuan,China,539,3,498,30.6171,102.7103
3/12/20,Heilongjiang,China,482,13,441,47.862,127.7615
3/12/20,UK,United Kingdom,456,8,18,55.3781,-3.436
3/12/20,Washington,United States,442,31,1,47.4009,-121.4905
3/12/20,Beijing,China,435,8,334,40.1824,116.4142
3/12/20,Shanghai,China,344,3,321,31.202,121.4491
3/12/20,New York,United States,328,0,0,42.1657,-74.9481
3/12/20,Hebei,China,318,6,308,39.549,116.1306
3/12/20,Fujian,China,296,1,295,26.0789,117.9874
3/12/20,Guangxi,China,252,2,241,23.8298,108.7881
3/12/20,Shaanxi,China,245,2,232,35.1917,108.8701
3/12/20,California,United States,221,4,6,36.1162,-119.6816
3/12/20,Yunnan,China,174,2,170,24.974,101.487
3/12/20,Hainan,China,168,6,160,19.1959,109.7453
3/12/20,Guizhou,China,146,2,137,26.8154,106.8748
3/12/20,Tianjin,China,136,3,132,39.3054,117.323
3/12/20,Shanxi,China,133,0,132,37.5777,112.2922
3/12/20,Hong Kong,China,129,3,67,22.3,114.2
3/12/20,Gansu,China,127,2,88,37.8099,101.0583
3/12/20,Liaoning,China,125,1,112,41.2956,122.6085
3/12/20,Massachusetts,United States,108,0,1,42.2302,-71.5301
3/12/20,Prague,Czech Republic,94,0,0,49.8175,15.473
3/12/20,Jilin,China,93,1,91,43.6661,126.1923
3/12/20,Xinjiang,China,76,3,73,41.1129,85.2401
3/12/20,Inner Mongolia,China,75,1,71,44.0935,113.9448
3/12/20,Ningxia,China,75,0,72,37.2692,106.1655
3/12/20,New South Wales,Australia,65,2,4,-33.8688,151.2093
3/12/20,Abu Dhabi,United Arab Emirates,85,0,17,23.4241,53.8478
3/12/20,Taiwan,Taiwan,49,1,20,23.7,121
3/12/20,British Columbia,Canada,46,1,4,53.7267,-127.6476
3/12/20,Diamond Princess,United States,46,0,0,35.4437,139.638
3/12/20,Colorado,United States,45,0,0,39.0598,-105.3111
3/12/20,Ontario,Canada,42,0,4,51.2538,-85.3232
3/12/20,Florida,United States,35,2,0,27.7663,-81.6868
3/12/20,Illinois,United States,32,0,2,40.3495,-88.9861
3/12/20,Georgia,United States,31,1,0,33.0406,-83.6431
3/12/20,New Jersey,United States,29,1,0,40.2989,-74.521
3/12/20,Texas,United States,27,0,0,31.0545,-97.5635
3/12/20,Oregon,United States,24,0,0,44.572,-122.0709
3/12/20,Pennsylvania,United States,22,0,0,40.5908,-77.2098
3/12/20,Victoria,Australia,21,0,7,-37.8136,144.9631
3/12/20,Grand Princess,United States,21,0,0,37.6489,-122.6655
3/12/20,Queensland,Australia,20,0,8,-28.0167,153.4
3/12/20,Alberta,Canada,19,0,0,53.9333,-116.5765
3/12/20,Louisiana,United States,19,0,0,31.1695,-91.8678
3/12/20,Qinghai,China,18,0,18,35.7452,95.9956
3/12/20,Tennessee,United States,18,0,0,35.7478,-86.6923
3/12/20,Virginia,United States,17,0,0,37.7693,-78.17
3/12/20,Iowa,United States,16,0,0,42.0115,-93.2105
3/12/20,North Carolina,United States,15,0,0,35.6301,-79.8064
3/12/20,Nevada,United States,14,0,0,38.3135,-117.0554
3/12/20,Indiana,United States,13,0,0,39.8494,-86.2583
3/12/20,Maryland,United States,12,0,0,39.0639,-76.8021
3/12/20,South Carolina,United States,12,0,0,33.8569,-80.945
3/12/20,Macau,China,10,0,10,22.1667,113.55
3/12/20,District of Columbia,United States,10,0,0,38.8974,-77.0268
3/12/20,Kentucky,United States,10,0,0,37.6681,-84.6701
3/12/20,Nebraska,United States,10,0,0,41.1254,-98.2681
3/12/20,South Australia,Australia,9,0,2,-34.9285,138.6007
3/12/20,Western Australia,Australia,9,1,0,-31.9505,115.8605
3/12/20,Quebec,Canada,9,0,0,52.9399,-73.5491
3/12/20,Arizona,United States,9,0,1,33.7298,-111.4312
3/12/20,Minnesota,United States,9,0,0,45.6945,-93.9002
3/12/20,South Dakota,United States,8,1,0,44.2998,-99.4388
3/12/20,Wisconsin,United States,8,0,1,44.2685,-89.6165
3/12/20,Arkansas,United States,6,0,0,34.9697,-92.3731
3/12/20,New Hampshire,United States,6,0,0,43.4525,-71.5639
3/12/20,Connecticut,United States,5,0,0,41.5978,-72.7554
3/12/20,New Mexico,United States,5,0,0,34.8405,-106.2485
3/12/20,Ohio,United States,5,0,0,40.3888,-82.7649
3/12/20,Rhode Island,United States,5,0,0,41.6809,-71.5118
3/12/20,Utah,United States,5,0,0,40.15,-111.8624
3/12/20,Tasmania,Australia,3,0,0,-41.4545,145.9707
3/12/20,Faroe Islands,Denmark,2,0,0,61.8926,-6.9118
3/12/20,St Martin,France,2,0,0,18.0708,-63.0501
3/12/20,Hawaii,United States,2,0,0,21.0943,-157.4983
3/12/20,Michigan,United States,2,0,0,43.3266,-84.5361
3/12/20,Oklahoma,United States,2,0,0,35.5653,-96.9289
3/12/20,Vermont,United States,2,0,0,44.0459,-72.7107
3/12/20,Channel Islands,United Kingdom,2,0,0,49.3723,-2.3644
3/12/20,Northern Territory,Australia,1,0,0,-12.4634,130.8456
3/12/20,New Brunswick,Canada,1,0,0,46.5653,-66.4619
3/12/20,Tibet,China,1,0,1,31.6927,88.0924
3/12/20,Saint Barthelemy,France,1,0,0,17.9,-62.8333
3/12/20,Delaware,United States,1,0,0,39.3185,-75.5071
3/12/20,Kansas,United States,1,0,0,38.5266,-96.7265
3/12/20,Mississippi,United States,1,0,0,32.7416,-89.6787
3/12/20,Missouri,United States,1,0,0,38.4561,-92.2884
3/12/20,Montana,United States,1,0,0,46.9219,-110.4544
3/12/20,North Dakota,United States,1,0,0,47.5289,-99.784
3/12/20,Wyoming,United States,1,0,0,42.756,-107.3025
3/12/20,Gibraltar,United Kingdom,1,0,1,36.1408,-5.3536
3/12/20,From Diamond Princess,Australia,0,0,0,35.4437,139.638
3/12/20,Gansu,China,0,0,0,36.0611,103.8343
3/12/20,Hebei,China,0,0,0,38.0428,114.5149
3/12/20,Alaska,United States,0,0,0,61.3707,-152.4044
3/12/20,Idaho,United States,0,0,0,44.2405,-114.4788
3/12/20,Maine,United States,0,0,0,44.6939,-69.3819
3/12/20,West Virginia,United States,0,0,0,38.4912,-80.9545
3/12/20,Quang Ha,Vietnam,39,0,16,16,108
3/11/20,Unknown,Afghanistan,7,0,0,33,65
3/11/20,Unknown,Albania,12,1,0,41.1533,20.1683
3/11/20,Unknown,Algeria,20,0,0,28.0339,1.6596
3/11/20,Unknown,Andorra,1,0,0,42.5063,1.5218
3/11/20,Unknown,Argentina,19,1,0,-38.4161,-63.6167
3/11/20,Unknown,Armenia,1,0,0,40.0691,45.0382
3/11/20,Unknown,Austria,246,0,4,47.5162,14.5501
3/11/20,Unknown,Azerbaijan,11,0,3,40.1431,47.5769
3/11/20,Unknown,Bahrain,195,0,35,26.0275,50.55
3/11/20,Unknown,Bangladesh,3,0,0,23.685,90.3563
3/11/20,Unknown,Belarus,9,0,3,53.7098,27.9534
3/11/20,Brussels,Belgium,314,3,1,50.8333,4
3/11/20,Unknown,Bhutan,1,0,0,27.5142,90.4336
3/11/20,Unknown,Bolivia,2,0,0,-16.2902,-63.5887
3/11/20,Unknown,Bosnia and Herzegovina,7,0,0,43.9159,17.6791
3/11/20,Unknown,Brazil,38,0,0,-14.235,-51.9253
3/11/20,Unknown,Brunei,11,0,0,4.5353,114.7277
3/11/20,Unknown,Bulgaria,7,1,0,42.7339,25.4858
3/11/20,Unknown,Burkina Faso,2,0,0,12.2383,-1.5616
3/11/20,Kampong Chhnang,Cambodia,3,0,1,12.5657,104.991
3/11/20,Unknown,Cameroon,2,0,0,3.848,11.5021
3/11/20,Unknown,Chile,23,0,0,-35.6751,-71.543
3/11/20,Unknown,Colombia,9,0,0,4.5709,-74.2973
3/11/20,Unknown,Congo (Kinshasa),1,0,0,-4.0383,21.7587
3/11/20,Unknown,Costa Rica,13,0,0,9.7489,-83.7534
3/11/20,Unknown,Cote d'Ivoire,1,0,0,7.54,-5.5471
3/11/20,Unknown,Croatia,19,0,0,45.1667,15.5
3/11/20,Unknown,Cyprus,6,0,0,35.1264,33.4299
3/11/20,Unknown,Dominican Republic,5,0,0,18.7357,-70.1627
3/11/20,Unknown,Ecuador,17,0,0,-1.8312,-78.1834
3/11/20,Unknown,Egypt,60,1,27,26,30
3/11/20,Unknown,Estonia,16,0,0,58.5953,25.0136
3/11/20,Kajaani,Finland,59,0,1,64,26
3/11/20,Unknown,French Guiana,5,0,0,3.9339,-53.1258
3/11/20,Unknown,Georgia,24,0,0,42.3154,43.3569
3/11/20,Kassel,Germany,1908,3,25,51,9
3/11/20,Unknown,Greece,99,1,0,39.0742,21.8243
3/11/20,Unknown,Holy See,1,0,0,41.9029,12.4534
3/11/20,Unknown,Honduras,2,0,0,15.2,-86.2419
3/11/20,Unknown,Hungary,13,0,0,47.1625,19.5033
3/11/20,Unknown,Iceland,85,0,1,64.9631,-19.0208
3/11/20,Nagpur,India,62,1,4,21,78
3/11/20,Unknown,Indonesia,34,1,2,-0.7893,113.9213
3/11/20,Unknown,Iraq,71,7,15,33,44
3/11/20,Unknown,Ireland,43,1,0,53.1424,-7.6921
3/11/20,Unknown,Israel,109,0,4,31,35
3/11/20,Arezzo,Italy,12462,827,1045,43,12
3/11/20,Unknown,Jamaica,1,0,0,18.1096,-77.2975
3/11/20,Unknown,Jordan,1,0,0,31.24,36.51
3/11/20,Daegu,South Korea,7755,60,288,36,128
3/11/20,Unknown,Kuwait,72,0,2,29.5,47.75
3/11/20,Unknown,Latvia,10,0,1,56.8796,24.6032
3/11/20,Unknown,Lebanon,61,3,1,33.8547,35.8623
3/11/20,Unknown,Liechtenstein,1,0,0,47.14,9.55
3/11/20,Unknown,Lithuania,3,0,0,55.1694,23.8813
3/11/20,Unknown,Luxembourg,7,0,0,49.8144,6.1317
3/11/20,Sibu,Malaysia,149,0,26,2.5,112.5
3/11/20,Unknown,Maldives,8,0,0,3.2028,73.2207
3/11/20,Unknown,Malta,6,0,0,35.9375,14.3754
3/11/20,Unknown,Martinique,3,0,0,14.6415,-61.0242
3/11/20,Fresnillo,Mexico,8,0,4,23,-102
3/11/20,Unknown,Moldova,3,0,0,47.4116,28.3699
3/11/20,Unknown,Monaco,1,0,0,43.7333,7.4167
3/11/20,Unknown,Mongolia,1,0,0,46.8625,103.8467
3/11/20,Unknown,Morocco,5,1,0,31.7917,-7.0926
3/11/20,Pokhara,Nepal,1,0,1,28.3949,84.124
3/11/20,Unknown,Netherlands,503,5,0,52.1326,5.2913
3/11/20,Unknown,New Zealand,5,0,0,-40.9006,174.886
3/11/20,Unknown,Nigeria,2,0,0,9.082,8.6753
3/11/20,Unknown,North Macedonia,7,0,0,41.6086,21.7453
3/11/20,Unknown,Norway,598,0,1,60.472,8.4689
3/11/20,Unknown,occupied Palestinian territory,0,0,0,31.9522,35.2332
3/11/20,Dawwah,Oman,18,0,9,21,57
3/11/20,Quetta,Pakistan,19,0,2,30.3753,69.3451
3/11/20,Unknown,Panama,8,1,0,8.538,-80.7821
3/11/20,Unknown,Paraguay,5,0,0,-23.4425,-58.4438
3/11/20,Unknown,Peru,11,0,0,-9.19,-75.0152
3/11/20,Boac,Philippines,49,1,2,12.8797,121.774
3/11/20,Unknown,Poland,31,0,0,51.9194,19.1451
3/11/20,Unknown,Portugal,59,0,0,39.3999,-8.2245
3/11/20,Unknown,Qatar,262,0,0,25.3548,51.1839
3/11/20,Reunion,France,1,0,0,-21.1151,55.5364
3/11/20,Reunion,Romania,45,0,6,46,25
3/11/20,Unknown,Russia,20,0,3,60,90
3/11/20,Unknown,San Marino,62,2,0,43.9424,12.4578
3/11/20,Unknown,Saudi Arabia,21,0,1,24,45
3/11/20,Unknown,Senegal,4,0,1,14.4974,-14.4524
3/11/20,Unknown,Serbia,12,0,0,44.0165,21.0059
3/11/20,Singapore,Singapore,178,0,96,1.2833,103.8333
3/11/20,Unknown,Slovakia,10,0,0,48.669,19.699
3/11/20,Unknown,Slovenia,57,0,0,46.1512,14.9955
3/11/20,Unknown,South Africa,13,0,0,-30.5595,22.9375
3/11/20,Madrid,Spain,2277,54,183,40,-4
3/11/20,Unknown,Sri Lanka,2,0,1,7.8731,80.7718
3/11/20,Unknown,Sweden,500,1,1,63,16
3/11/20,Unknown,Switzerland,652,4,4,46.8182,8.2275
3/11/20,Lop Buri,Thailand,59,1,34,15.87,100.9925
3/11/20,Unknown,Togo,1,0,0,8.6195,0.8248
3/11/20,Hubei,China,67773,3046,49134,30.9756,112.2707
3/11/20,Khomeyni Shahr,Iran,9000,354,2959,32,53
3/11/20,France,France,2281,48,12,46.2276,2.2137
3/11/20,Unknown,Tunisia,7,0,0,33.8869,9.5375
3/11/20,Guangdong,China,1356,8,1282,23.3417,113.4244
3/11/20,Henan,China,1273,22,1249,33.882,113.614
3/11/20,Zhejiang,China,1215,1,1195,29.1832,120.0934
3/11/20,Hunan,China,1018,4,995,27.6104,111.7088
3/11/20,Anhui,China,990,6,984,31.8257,117.2264
3/11/20,Jiangxi,China,935,1,932,27.614,115.7221
3/11/20,Shandong,China,760,6,726,36.3427,118.1498
3/11/20,Diamond Princess,Cruise Ship,696,7,325,35.4437,139.638
3/11/20,Tokyo,Japan,639,15,118,36,138
3/11/20,Jiangsu,China,631,0,627,32.9711,119.455
3/11/20,Unknown,Turkey,1,0,0,38.9637,35.2433
3/11/20,Chongqing,China,576,6,554,30.0572,107.874
3/11/20,Sichuan,China,539,3,488,30.6171,102.7103
3/11/20,Heilongjiang,China,482,13,436,47.862,127.7615
3/11/20,UK,United Kingdom,456,8,18,55.3781,-3.436
3/11/20,Denmark,Denmark,442,0,1,56.2639,9.5018
3/11/20,Beijing,China,435,8,326,40.1824,116.4142
3/11/20,Washington,United States,366,29,1,47.4009,-121.4905
3/11/20,Shanghai,China,344,3,320,31.202,121.4491
3/11/20,Hebei,China,318,6,307,39.549,116.1306
3/11/20,Fujian,China,296,1,295,26.0789,117.9874
3/11/20,Guangxi,China,252,2,238,23.8298,108.7881
3/11/20,Shaanxi,China,245,1,232,35.1917,108.8701
3/11/20,New York,United States,220,0,0,42.1657,-74.9481
3/11/20,California,United States,177,3,2,36.1162,-119.6816
3/11/20,Yunnan,China,174,2,170,24.974,101.487
3/11/20,Hainan,China,168,6,159,19.1959,109.7453
3/11/20,Guizhou,China,146,2,133,26.8154,106.8748
3/11/20,Tianjin,China,136,3,131,39.3054,117.323
3/11/20,Shanxi,China,133,0,131,37.5777,112.2922
3/11/20,Gansu,China,127,2,88,37.8099,101.0583
3/11/20,Hong Kong,China,126,3,65,22.3,114.2
3/11/20,Liaoning,China,125,1,111,41.2956,122.6085
3/11/20,Massachusetts,United States,95,0,1,42.2302,-71.5301
3/11/20,Jilin,China,93,1,91,43.6661,126.1923
3/11/20,Prague,Czech Republic,91,0,0,49.8175,15.473
3/11/20,Xinjiang,China,76,3,73,41.1129,85.2401
3/11/20,Inner Mongolia,China,75,1,71,44.0935,113.9448
3/11/20,Ningxia,China,75,0,72,37.2692,106.1655
3/11/20,New South Wales,Australia,65,2,4,-33.8688,151.2093
3/11/20,Taiwan,Taiwan,48,1,17,23.7,121
3/11/20,Diamond Princess,United States,46,0,0,35.4437,139.638
3/11/20,Ontario,Canada,41,0,4,51.2538,-85.3232
3/11/20,British Columbia,Canada,39,1,4,53.7267,-127.6476
3/11/20,Colorado,United States,34,0,0,39.0598,-105.3111
3/11/20,Florida,United States,28,2,0,27.7663,-81.6868
3/11/20,Illinois,United States,25,0,2,40.3495,-88.9861
3/11/20,Georgia,United States,23,0,0,33.0406,-83.6431
3/11/20,New Jersey,United States,23,1,0,40.2989,-74.521
3/11/20,Victoria,Australia,21,0,7,-37.8136,144.9631
3/11/20,Grand Princess,United States,21,0,0,37.6489,-122.6655
3/11/20,Texas,United States,21,0,0,31.0545,-97.5635
3/11/20,Queensland,Australia,20,0,8,-28.0167,153.4
3/11/20,Alberta,Canada,19,0,0,53.9333,-116.5765
3/11/20,Oregon,United States,19,0,0,44.572,-122.0709
3/11/20,Qinghai,China,18,0,18,35.7452,95.9956
3/11/20,Pennsylvania,United States,16,0,0,40.5908,-77.2098
3/11/20,Iowa,United States,13,0,0,42.0115,-93.2105
3/11/20,Indiana,United States,11,0,0,39.8494,-86.2583
3/11/20,Macau,China,10,0,10,22.1667,113.55
3/11/20,District of Columbia,United States,10,0,0,38.8974,-77.0268
3/11/20,South Carolina,United States,10,0,0,33.8569,-80.945
3/11/20,South Australia,Australia,9,0,2,-34.9285,138.6007
3/11/20,Western Australia,Australia,9,1,0,-31.9505,115.8605
3/11/20,Arizona,United States,9,0,1,33.7298,-111.4312
3/11/20,Maryland,United States,9,0,0,39.0639,-76.8021
3/11/20,Tennessee,United States,9,0,0,35.7478,-86.6923
3/11/20,Virginia,United States,9,0,0,37.7693,-78.17
3/11/20,Quebec,Canada,8,0,0,52.9399,-73.5491
3/11/20,Kentucky,United States,8,0,0,37.6681,-84.6701
3/11/20,South Dakota,United States,8,1,0,44.2998,-99.4388
3/11/20,Nevada,United States,7,0,0,38.3135,-117.0554
3/11/20,North Carolina,United States,7,0,0,35.6301,-79.8064
3/11/20,Unknown,Ukraine,1,0,0,48.3794,31.1656
3/11/20,Louisiana,United States,6,0,0,31.1695,-91.8678
3/11/20,Wisconsin,United States,6,0,1,44.2685,-89.6165
3/11/20,Minnesota,United States,5,0,0,45.6945,-93.9002
3/11/20,Nebraska,United States,5,0,0,41.1254,-98.2681
3/11/20,New Hampshire,United States,5,0,0,43.4525,-71.5639
3/11/20,Rhode Island,United States,5,0,0,41.6809,-71.5118
3/11/20,Ohio,United States,4,0,0,40.3888,-82.7649
3/11/20,Tasmania,Australia,3,0,0,-41.4545,145.9707
3/11/20,Connecticut,United States,3,0,0,41.5978,-72.7554
3/11/20,New Mexico,United States,3,0,0,34.8405,-106.2485
3/11/20,Utah,United States,3,0,0,40.15,-111.8624
3/11/20,Faroe Islands,Denmark,2,0,0,61.8926,-6.9118
3/11/20,St Martin,France,2,0,0,18.0708,-63.0501
3/11/20,Hawaii,United States,2,0,0,21.0943,-157.4983
3/11/20,Michigan,United States,2,0,0,43.3266,-84.5361
3/11/20,Oklahoma,United States,2,0,0,35.5653,-96.9289
3/11/20,Channel Islands,United Kingdom,2,0,0,49.3723,-2.3644
3/11/20,Northern Territory,Australia,1,0,0,-12.4634,130.8456
3/11/20,New Brunswick,Canada,1,0,0,46.5653,-66.4619
3/11/20,Tibet,China,1,0,1,31.6927,88.0924
3/11/20,Saint Barthelemy,France,1,0,0,17.9,-62.8333
3/11/20,Arkansas,United States,1,0,0,34.9697,-92.3731
3/11/20,Delaware,United States,1,0,0,39.3185,-75.5071
3/11/20,Kansas,United States,1,0,0,38.5266,-96.7265
3/11/20,Missouri,United States,1,0,0,38.4561,-92.2884
3/11/20,Montana,United States,1,0,0,46.9219,-110.4544
3/11/20,Vermont,United States,1,0,0,44.0459,-72.7107
3/11/20,Gibraltar,United Kingdom,1,0,1,36.1408,-5.3536
3/11/20,From Diamond Princess,Australia,0,0,0,35.4437,139.638
3/11/20,Gansu,China,0,0,0,36.0611,103.8343
3/11/20,Hebei,China,0,0,0,38.0428,114.5149
3/11/20,Alaska,United States,0,0,0,61.3707,-152.4044
3/11/20,Idaho,United States,0,0,0,44.2405,-114.4788
3/11/20,Maine,United States,0,0,0,44.6939,-69.3819
3/11/20,Mississippi,United States,0,0,0,32.7416,-89.6787
3/11/20,North Dakota,United States,0,0,0,47.5289,-99.784
3/11/20,West Virginia,United States,0,0,0,38.4912,-80.9545
3/11/20,Wyoming,United States,0,0,0,42.756,-107.3025
3/11/20,Abu Dhabi,United Arab Emirates,74,0,17,23.4241,53.8478
3/11/20,Quang Ha,Vietnam,38,0,16,16,108
3/10/20,Unknown,Afghanistan,5,0,0,33,65
3/10/20,Unknown,Albania,10,0,0,41.1533,20.1683
3/10/20,Unknown,Algeria,20,0,0,28.0339,1.6596
3/10/20,Unknown,Andorra,1,0,0,42.5063,1.5218
3/10/20,Unknown,Argentina,17,1,0,-38.4161,-63.6167
3/10/20,Unknown,Armenia,1,0,0,40.0691,45.0382
3/10/20,Unknown,Austria,182,0,4,47.5162,14.5501
3/10/20,Unknown,Azerbaijan,11,0,0,40.1431,47.5769
3/10/20,Unknown,Bahrain,110,0,22,26.0275,50.55
3/10/20,Unknown,Bangladesh,3,0,0,23.685,90.3563
3/10/20,Unknown,Belarus,9,0,3,53.7098,27.9534
3/10/20,Brussels,Belgium,267,0,1,50.8333,4
3/10/20,Unknown,Bhutan,1,0,0,27.5142,90.4336
3/10/20,Unknown,Bosnia and Herzegovina,5,0,0,43.9159,17.6791
3/10/20,Unknown,Brazil,31,0,0,-14.235,-51.9253
3/10/20,Unknown,Brunei,1,0,0,4.5353,114.7277
3/10/20,Unknown,Bulgaria,4,0,0,42.7339,25.4858
3/10/20,Unknown,Burkina Faso,1,0,0,12.2383,-1.5616
3/10/20,Phnom Penh,Cambodia,2,0,1,11.55,104.9167
3/10/20,Unknown,Cameroon,2,0,0,3.848,11.5021
3/10/20,Unknown,Channel Islands,1,0,0,49.3723,-2.3644
3/10/20,Unknown,Chile,13,0,0,-35.6751,-71.543
3/10/20,Unknown,Colombia,3,0,0,4.5709,-74.2973
3/10/20,Unknown,Costa Rica,9,0,0,9.7489,-83.7534
3/10/20,Unknown,Croatia,14,0,0,45.1667,15.5
3/10/20,Unknown,Cyprus,3,0,0,35.1264,33.4299
3/10/20,Unknown,Denmark,262,0,1,56.2639,9.5018
3/10/20,Unknown,Dominican Republic,5,0,0,18.7357,-70.1627
3/10/20,Unknown,Ecuador,15,0,0,-1.8312,-78.1834
3/10/20,Unknown,Egypt,59,1,1,26,30
3/10/20,Unknown,Estonia,12,0,0,58.5953,25.0136
3/10/20,Unknown,Faroe Islands,2,0,0,61.8926,-6.9118
3/10/20,Kajaani,Finland,40,0,1,64,26
3/10/20,Orleans,France,1784,33,12,47,2
3/10/20,Unknown,French Guiana,5,0,0,3.9339,-53.1258
3/10/20,Unknown,Georgia,15,0,0,42.3154,43.3569
3/10/20,Kassel,Germany,1457,2,18,51,9
3/10/20,Unknown,Gibraltar,1,0,1,36.1408,-5.3536
3/10/20,Unknown,Greece,89,0,0,39.0742,21.8243
3/10/20,Unknown,Holy See,1,0,0,41.9029,12.4534
3/10/20,Unknown,Hungary,9,0,0,47.1625,19.5033
3/10/20,Unknown,Iceland,69,0,1,64.9631,-19.0208
3/10/20,Nagpur,India,56,0,4,21,78
3/10/20,Unknown,Indonesia,27,0,2,-0.7893,113.9213
3/10/20,Unknown,Iraq,71,7,3,33,44
3/10/20,Unknown,Ireland,34,0,0,53.1424,-7.6921
3/10/20,Unknown,Israel,58,0,4,31,35
3/10/20,Arezzo,Italy,10149,631,724,43,12
3/10/20,Unknown,Jordan,1,0,0,31.24,36.51
3/10/20,Unknown,Kuwait,69,0,1,29.5,47.75
3/10/20,Unknown,Latvia,8,0,1,56.8796,24.6032
3/10/20,Unknown,Lebanon,41,1,1,33.8547,35.8623
3/10/20,Unknown,Liechtenstein,1,0,0,47.14,9.55
3/10/20,Unknown,Lithuania,1,0,0,55.1694,23.8813
3/10/20,Unknown,Luxembourg,5,0,0,49.8144,6.1317
3/10/20,Sibu,Malaysia,129,0,24,2.5,112.5
3/10/20,Unknown,Maldives,6,0,0,3.2028,73.2207
3/10/20,Unknown,Malta,5,0,0,35.9375,14.3754
3/10/20,Unknown,Martinique,2,0,0,14.6415,-61.0242
3/10/20,Fresnillo,Mexico,7,0,4,23,-102
3/10/20,Unknown,Monaco,1,0,0,43.7333,7.4167
3/10/20,Unknown,Mongolia,1,0,0,46.8625,103.8467
3/10/20,Unknown,Morocco,3,1,0,31.7917,-7.0926
3/10/20,Pokhara,Nepal,1,0,1,28.3949,84.124
3/10/20,Unknown,Netherlands,382,4,0,52.1326,5.2913
3/10/20,Unknown,New Zealand,5,0,0,-40.9006,174.886
3/10/20,Unknown,Nigeria,2,0,0,9.082,8.6753
3/10/20,Unknown,North Macedonia,7,0,0,41.6086,21.7453
3/10/20,Unknown,Norway,400,0,1,60.472,8.4689
3/10/20,Unknown,occupied Palestinian territory,25,0,0,31.9522,35.2332
3/10/20,Dawwah,Oman,18,0,9,21,57
3/10/20,Quetta,Pakistan,16,0,1,30.3753,69.3451
3/10/20,Unknown,Panama,1,0,0,8.538,-80.7821
3/10/20,Unknown,Paraguay,1,0,0,-23.4425,-58.4438
3/10/20,Unknown,Peru,11,0,0,-9.19,-75.0152
3/10/20,Boac,Philippines,33,1,2,12.8797,121.774
3/10/20,Unknown,Poland,22,0,0,51.9194,19.1451
3/10/20,Unknown,Portugal,41,0,0,39.3999,-8.2245
3/10/20,Unknown,Qatar,24,0,0,25.3548,51.1839
3/10/20,Daegu,South Korea,7513,54,247,36,128
3/10/20,Unknown,Republic of Moldova,3,0,0,47.4116,28.3699
3/10/20,Unknown,Romania,25,0,3,46,25
3/10/20,Unknown,Russia,10,0,3,60,90
3/10/20,Unknown,Saint Barthelemy,1,0,0,17.9,-62.8333
3/10/20,Unknown,Saint Martin,2,0,0,18.0708,-63.0501
3/10/20,Unknown,San Marino,51,2,0,43.9424,12.4578
3/10/20,Unknown,Saudi Arabia,20,0,1,24,45
3/10/20,Unknown,Senegal,4,0,1,14.4974,-14.4524
3/10/20,Unknown,Serbia,5,0,0,44.0165,21.0059
3/10/20,Singapore,Singapore,160,0,78,1.2833,103.8333
3/10/20,Unknown,Slovakia,7,0,0,48.669,19.699
3/10/20,Unknown,Slovenia,31,0,0,46.1512,14.9955
3/10/20,Unknown,South Africa,7,0,0,-30.5595,22.9375
3/10/20,Madrid,Spain,1695,35,32,40,-4
3/10/20,Unknown,Sri Lanka,1,0,1,7.8731,80.7718
3/10/20,Sundsvall,Sweden,355,0,1,63,16
3/10/20,Hubei,China,67760,3024,47743,30.9756,112.2707
3/10/20,Khomeyni Shahr,Iran,8042,291,2731,32,53
3/10/20,Guangdong,China,1353,8,1274,23.3417,113.4244
3/10/20,Henan,China,1272,22,1247,33.882,113.614
3/10/20,Zhejiang,China,1215,1,1191,29.1832,120.0934
3/10/20,Hunan,China,1018,4,990,27.6104,111.7088
3/10/20,Anhui,China,990,6,984,31.8257,117.2264
3/10/20,Jiangxi,China,935,1,927,27.614,115.7221
3/10/20,Shandong,China,758,6,719,36.3427,118.1498
3/10/20,Diamond Princess cruise ship,Others,696,6,40,35.4437,139.638
3/10/20,Jiangsu,China,631,0,627,32.9711,119.455
3/10/20,Tokyo,Japan,581,10,101,36,138
3/10/20,Chongqing,China,576,6,547,30.0572,107.874
3/10/20,Sichuan,China,539,3,478,30.6171,102.7103
3/10/20,Heilongjiang,China,481,13,434,47.862,127.7615
3/10/20,Beijing,China,429,8,320,40.1824,116.4142
3/10/20,Shanghai,China,344,3,319,31.202,121.4491
3/10/20,Hebei,China,318,6,307,38.0428,114.5149
3/10/20,Fujian,China,296,1,295,26.0789,117.9874
3/10/20,Washington,United States,267,23,1,47.4009,-121.4905
3/10/20,Guangxi,China,252,2,234,23.8298,108.7881
3/10/20,Shaanxi,China,245,1,227,35.1917,108.8701
3/10/20,Yunnan,China,174,2,170,24.974,101.487
3/10/20,New York,United States,173,0,0,42.1657,-74.9481
3/10/20,Hainan,China,168,6,159,19.1959,109.7453
3/10/20,Guizhou,China,146,2,129,26.8154,106.8748
3/10/20,California,United States,144,2,2,36.1162,-119.6816
3/10/20,Tianjin,China,136,3,131,39.3054,117.323
3/10/20,Shanxi,China,133,0,131,37.5777,112.2922
3/10/20,Unknown,Switzerland,491,3,3,46.8182,8.2275
3/10/20,Gansu,China,125,2,88,36.0611,103.8343
3/10/20,Liaoning,China,125,1,111,41.2956,122.6085
3/10/20,Hong Kong,Hong Kong,120,3,65,22.3,114.2
3/10/20,Jilin,China,93,1,91,43.6661,126.1923
3/10/20,Massachusetts,United States,92,0,1,42.2302,-71.5301
3/10/20,Xinjiang,China,76,3,73,41.1129,85.2401
3/10/20,Inner Mongolia,China,75,1,70,44.0935,113.9448
3/10/20,Ningxia,China,75,0,71,37.2692,106.1655
3/10/20,New South Wales,Australia,55,2,4,-33.8688,151.2093
3/10/20,Taiwan,Taiwan,47,1,17,23.7,121
3/10/20,Diamond Princess,United States,46,0,0,35.4437,139.638
3/10/20,Prague,Czech Republic,41,0,0,49.8175,15.473
3/10/20,Ontario,Canada,36,0,4,51.2538,-85.3232
3/10/20,British Columbia,Canada,32,1,4,53.7267,-127.6476
3/10/20,Grand Princess,United States,21,0,0,37.6489,-122.6655
3/10/20,Queensland,Australia,18,0,8,-28.0167,153.4
3/10/20,Victoria,Australia,18,0,7,-37.8136,144.9631
3/10/20,Qinghai,China,18,0,18,35.7452,95.9956
3/10/20,Georgia,United States,17,0,0,33.0406,-83.6431
3/10/20,Colorado,United States,15,0,0,39.0598,-105.3111
3/10/20,Florida,United States,15,2,0,27.7663,-81.6868
3/10/20,New Jersey,United States,15,1,0,40.2989,-74.521
3/10/20,Oregon,United States,15,0,0,44.572,-122.0709
3/10/20,Texas,United States,13,0,0,31.0545,-97.5635
3/10/20,Illinois,United States,12,0,2,40.3495,-88.9861
3/10/20,Pennsylvania,United States,12,0,0,40.5908,-77.2098
3/10/20,Macau,Macau,10,0,10,22.1667,113.55
3/10/20,Iowa,United States,8,0,0,42.0115,-93.2105
3/10/20,Maryland,United States,8,0,0,39.0639,-76.8021
3/10/20,South Australia,Australia,7,0,2,-34.9285,138.6007
3/10/20,Alberta,Canada,7,0,0,53.9333,-116.5765
3/10/20,North Carolina,United States,7,0,0,35.6301,-79.8064
3/10/20,South Carolina,United States,7,0,0,33.8569,-80.945
3/10/20,Tennessee,United States,7,0,0,35.7478,-86.6923
3/10/20,Virginia,United States,7,0,0,37.7693,-78.17
3/10/20,Western Australia,Australia,6,1,0,-31.9505,115.8605
3/10/20,Arizona,United States,6,0,1,33.7298,-111.4312
3/10/20,Indiana,United States,6,0,0,39.8494,-86.2583
3/10/20,Kentucky,United States,6,0,0,37.6681,-84.6701
3/10/20,District of Columbia,United States,5,0,0,38.8974,-77.0268
3/10/20,Quebec,Canada,4,0,0,52.9399,-73.5491
3/10/20,Nevada,United States,4,0,0,38.3135,-117.0554
3/10/20,New Hampshire,United States,4,0,0,43.4525,-71.5639
3/10/20,Minnesota,United States,3,0,0,45.6945,-93.9002
3/10/20,Nebraska,United States,3,0,0,41.1254,-98.2681
3/10/20,Ohio,United States,3,0,0,40.3888,-82.7649
3/10/20,Rhode Island,United States,3,0,0,41.6809,-71.5118
3/10/20,Wisconsin,United States,3,0,1,44.2685,-89.6165
3/10/20,Tasmania,Australia,2,0,0,-41.4545,145.9707
3/10/20,Connecticut,United States,2,0,0,41.5978,-72.7554
3/10/20,Hawaii,United States,2,0,0,21.0943,-157.4983
3/10/20,Oklahoma,United States,2,0,0,35.5653,-96.9289
3/10/20,Utah,United States,2,0,0,40.15,-111.8624
3/10/20,Northern Territory,Australia,1,0,0,-12.4634,130.8456
3/10/20,Lop Buri,Thailand,53,1,33,15.87,100.9925
3/10/20,Tibet,China,1,0,1,31.6927,88.0924
3/10/20,Unknown,Togo,1,0,0,8.6195,0.8248
3/10/20,Kansas,United States,1,0,0,38.5266,-96.7265
3/10/20,Louisiana,United States,1,0,0,31.1695,-91.8678
3/10/20,Missouri,United States,1,0,0,38.4561,-92.2884
3/10/20,Vermont,United States,1,0,0,44.0459,-72.7107
3/10/20,From Diamond Princess,Australia,0,0,0,35.4437,139.638
3/10/20,Alaska,United States,0,0,0,61.3707,-152.4044
3/10/20,Arkansas,United States,0,0,0,34.9697,-92.3731
3/10/20,Delaware,United States,0,0,0,39.3185,-75.5071
3/10/20,Idaho,United States,0,0,0,44.2405,-114.4788
3/10/20,Maine,United States,0,0,0,44.6939,-69.3819
3/10/20,Michigan,United States,0,0,0,43.3266,-84.5361
3/10/20,Mississippi,United States,0,0,0,32.7416,-89.6787
3/10/20,Montana,United States,0,0,0,46.9219,-110.4544
3/10/20,New Mexico,United States,0,0,0,34.8405,-106.2485
3/10/20,North Dakota,United States,0,0,0,47.5289,-99.784
3/10/20,South Dakota,United States,0,0,0,44.2998,-99.4388
3/10/20,West Virginia,United States,0,0,0,38.4912,-80.9545
3/10/20,Wyoming,United States,0,0,0,42.756,-107.3025
3/10/20,Unknown,Tunisia,5,0,0,33.8869,9.5375
3/10/20,Liverpool,United Kingdom,382,6,18,55,-3
3/10/20,Unknown,Ukraine,1,0,0,48.3794,31.1656
3/10/20,Abu Dhabi,United Arab Emirates,74,0,12,23.4241,53.8478
3/10/20,Quang Ha,Vietnam,31,0,16,16,108
3/9/20,Unknown,Afghanistan,4,0,0,33,65
3/9/20,Unknown,Albania,2,0,0,41.1533,20.1683
3/9/20,Unknown,Algeria,20,0,0,28.0339,1.6596
3/9/20,Unknown,Andorra,1,0,0,42.5063,1.5218
3/9/20,Unknown,Argentina,12,1,0,-38.4161,-63.6167
3/9/20,Unknown,Armenia,1,0,0,40.0691,45.0382
3/9/20,Unknown,Austria,131,0,2,47.5162,14.5501
3/9/20,Unknown,Azerbaijan,9,0,0,40.1431,47.5769
3/9/20,Unknown,Bahrain,95,0,14,26.0275,50.55
3/9/20,Unknown,Bangladesh,3,0,0,23.685,90.3563
3/9/20,Unknown,Belarus,6,0,1,53.7098,27.9534
3/9/20,Brussels,Belgium,239,0,1,50.8333,4
3/9/20,Unknown,Bhutan,1,0,0,27.5142,90.4336
3/9/20,Unknown,Bosnia and Herzegovina,3,0,0,43.9159,17.6791
3/9/20,Unknown,Brazil,25,0,0,-14.235,-51.9253
3/9/20,Unknown,Brunei,1,0,0,4.5353,114.7277
3/9/20,Unknown,Bulgaria,4,0,0,42.7339,25.4858
3/9/20,Phnom Penh,Cambodia,2,0,1,11.55,104.9167
3/9/20,Unknown,Cameroon,2,0,0,3.848,11.5021
3/9/20,Unknown,Chile,8,0,0,-35.6751,-71.543
3/9/20,Unknown,Colombia,1,0,0,4.5709,-74.2973
3/9/20,Unknown,Costa Rica,9,0,0,9.7489,-83.7534
3/9/20,Unknown,Croatia,12,0,0,45.1667,15.5
3/9/20,Unknown,Cyprus,2,0,0,35.1264,33.4299
3/9/20,Unknown,Denmark,90,0,1,56.2639,9.5018
3/9/20,Unknown,Dominican Republic,5,0,0,18.7357,-70.1627
3/9/20,Unknown,Ecuador,15,0,0,-1.8312,-78.1834
3/9/20,Unknown,Egypt,55,1,12,26,30
3/9/20,Unknown,Estonia,10,0,0,58.5953,25.0136
3/9/20,Unknown,Faroe Islands,2,0,0,61.8926,-6.9118
3/9/20,Kajaani,Finland,30,0,1,64,26
3/9/20,Orleans,France,1209,19,12,47,2
3/9/20,Unknown,French Guiana,5,0,0,3.9339,-53.1258
3/9/20,Unknown,Georgia,15,0,0,42.3154,43.3569
3/9/20,Kassel,Germany,1176,2,18,51,9
3/9/20,Unknown,Gibraltar,1,0,0,36.1408,-5.3536
3/9/20,Unknown,Greece,73,0,0,39.0742,21.8243
3/9/20,Unknown,Hungary,9,0,0,47.1625,19.5033
3/9/20,Unknown,Iceland,58,0,0,64.9631,-19.0208
3/9/20,Nagpur,India,43,0,3,21,78
3/9/20,Unknown,Indonesia,19,0,0,-0.7893,113.9213
3/9/20,Unknown,Iraq,60,6,9,33,44
3/9/20,Unknown,Ireland,21,0,0,53.1424,-7.6921
3/9/20,Unknown,Israel,39,0,2,31,35
3/9/20,Arezzo,Italy,9172,463,724,43,12
3/9/20,Unknown,Jordan,1,0,0,31.24,36.51
3/9/20,Unknown,Kuwait,64,0,1,29.5,47.75
3/9/20,Unknown,Latvia,6,0,0,56.8796,24.6032
3/9/20,Unknown,Lebanon,32,0,1,33.8547,35.8623
3/9/20,Unknown,Liechtenstein,1,0,0,47.14,9.55
3/9/20,Unknown,Lithuania,1,0,0,55.1694,23.8813
3/9/20,Unknown,Luxembourg,3,0,0,49.8144,6.1317
3/9/20,Sibu,Malaysia,117,0,24,2.5,112.5
3/9/20,Unknown,Maldives,4,0,0,3.2028,73.2207
3/9/20,Unknown,Malta,3,0,0,35.9375,14.3754
3/9/20,Unknown,Martinique,2,0,0,14.6415,-61.0242
3/9/20,Fresnillo,Mexico,7,0,1,23,-102
3/9/20,Unknown,Moldova,1,0,0,47.4116,28.3699
3/9/20,Unknown,Monaco,1,0,0,43.7333,7.4167
3/9/20,Unknown,Morocco,2,0,0,31.7917,-7.0926
3/9/20,Pokhara,Nepal,1,0,1,28.1667,84.25
3/9/20,Unknown,Netherlands,321,3,0,52.1326,5.2913
3/9/20,Unknown,New Zealand,5,0,0,-40.9006,174.886
3/9/20,Unknown,Nigeria,2,0,0,9.082,8.6753
3/9/20,Unknown,North Macedonia,3,0,0,41.6086,21.7453
3/9/20,Unknown,Norway,205,0,1,60.472,8.4689
3/9/20,Dawwah,Oman,16,0,2,21,57
3/9/20,Quetta,Pakistan,6,0,1,30.3753,69.3451
3/9/20,Unknown,Palestine,22,0,0,31.9522,35.2332
3/9/20,Unknown,Paraguay,1,0,0,-23.4425,-58.4438
3/9/20,Unknown,Peru,7,0,0,-9.19,-75.0152
3/9/20,Boac,Philippines,20,1,1,13,122
3/9/20,Unknown,Poland,16,0,0,51.9194,19.1451
3/9/20,Unknown,Portugal,30,0,0,39.3999,-8.2245
3/9/20,Unknown,Qatar,18,0,0,25.3548,51.1839
3/9/20,Unknown,Romania,15,0,3,46,25
3/9/20,Unknown,Russia,17,0,3,60,90
3/9/20,Unknown,Saint Barthelemy,1,0,0,17.9,-62.8333
3/9/20,Unknown,San Marino,36,1,0,43.9424,12.4578
3/9/20,Unknown,Saudi Arabia,15,0,0,24,45
3/9/20,Unknown,Senegal,4,0,1,14.4974,-14.4524
3/9/20,Unknown,Serbia,1,0,0,44.0165,21.0059
3/9/20,Singapore,Singapore,150,0,78,1.2833,103.8333
3/9/20,Unknown,Slovakia,3,0,0,48.669,19.699
3/9/20,Unknown,Slovenia,16,0,0,46.1512,14.9955
3/9/20,Unknown,South Africa,3,0,0,-30.5595,22.9375
3/9/20,Daegu,South Korea,7478,53,118,36,128
3/9/20,Madrid,Spain,1073,28,32,40,-4
3/9/20,Hubei,China,67743,3008,46488,30.9756,112.2707
3/9/20,Khomeyni Shahr,Iran,7161,237,2394,32,53
3/9/20,Guangdong,China,1352,8,1260,23.3417,113.4244
3/9/20,Henan,China,1272,22,1247,33.882,113.614
3/9/20,Zhejiang,China,1215,1,1176,29.1832,120.0934
3/9/20,Hunan,China,1018,4,979,27.6104,111.7088
3/9/20,Anhui,China,990,6,984,31.8257,117.2264
3/9/20,Jiangxi,China,935,1,923,27.614,115.7221
3/9/20,Shandong,China,758,6,700,36.3427,118.1498
3/9/20,Diamond Princess cruise ship,Others,696,6,40,35.4437,139.638
3/9/20,Jiangsu,China,631,0,621,32.9711,119.455
3/9/20,Chongqing,China,576,6,542,30.0572,107.874
3/9/20,Sichuan,China,539,3,466,30.6171,102.7103
3/9/20,Tokyo,Japan,511,17,76,36,138
3/9/20,Heilongjiang,China,481,13,430,47.862,127.7615
3/9/20,Beijing,China,428,8,315,40.1824,116.4142
3/9/20,Shanghai,China,342,3,315,31.202,121.4491
3/9/20,Hebei,China,318,6,307,38.0428,114.5149
3/9/20,Fujian,China,296,1,295,26.0789,117.9874
3/9/20,Guangxi,China,252,2,230,23.8298,108.7881
3/9/20,Shaanxi,China,245,1,227,35.1917,108.8701
3/9/20,Yunnan,China,174,2,170,24.974,101.487
3/9/20,Hainan,China,168,6,159,19.1959,109.7453
3/9/20,Guizhou,China,146,2,123,26.8154,106.8748
3/9/20,Tianjin,China,136,3,130,39.3054,117.323
3/9/20,Shanxi,China,133,0,127,37.5777,112.2922
3/9/20,Liaoning,China,125,1,109,41.2956,122.6085
3/9/20,Gansu,China,124,2,88,36.0611,103.8343
3/9/20,Hong Kong,Hong Kong,115,3,59,22.3,114.2
3/9/20,"Westchester County, NY",United States,98,0,0,41.122,-73.7949
3/9/20,Jilin,China,93,1,91,43.6661,126.1923
3/9/20,"King County, WA",United States,83,17,1,47.548,-121.9836
3/9/20,Xinjiang,China,76,3,73,41.1129,85.2401
3/9/20,Inner Mongolia,China,75,1,70,44.0935,113.9448
3/9/20,Ningxia,China,75,0,71,37.2692,106.1655
3/9/20,New South Wales,Australia,48,3,4,-33.8688,151.2093
3/9/20,Taiwan,Taiwan,45,1,15,23.7,121
3/9/20,Unassigned Location (From Diamond Princess),United States,45,0,0,35.4437,139.638
3/9/20,"Santa Clara County, CA",United States,38,0,1,37.3541,-121.9552
3/9/20,Ontario,Canada,34,0,4,51.2538,-85.3232
3/9/20,British Columbia,Canada,32,1,4,53.7267,-127.6476
3/9/20,Prague,Czech Republic,31,0,0,49.8175,15.473
3/9/20,"Snohomish County, WA",United States,31,1,0,48.033,-121.8339
3/9/20,Grand Princess Cruise Ship,United States,21,0,0,37.6489,-122.6655
3/9/20,"New York County, NY",United States,19,0,0,40.7128,-74.006
3/9/20,Qinghai,China,18,0,18,35.7452,95.9956
3/9/20,"Nassau County, NY",United States,17,0,0,40.6546,-73.5594
3/9/20,Kandy,Sri Lanka,1,0,1,7,81
3/9/20,Queensland,Australia,15,0,8,-28.0167,153.4
3/9/20,Victoria,Australia,15,0,7,-37.8136,144.9631
3/9/20,Unknown,St. Martin,2,0,0,18.0708,-63.0501
3/9/20,"Los Angeles, CA",United States,14,0,0,34.0522,-118.2437
3/9/20,"Contra Costa County, CA",United States,12,0,0,37.8534,-121.9018
3/9/20,Macau,Macau,10,0,10,22.1667,113.55
3/9/20,"San Francisco County, CA",United States,9,0,0,37.7749,-122.4194
3/9/20,"Suffolk County, MA",United States,8,0,1,42.3601,-71.0589
3/9/20,"Washington County, OR",United States,8,0,0,45.547,-123.1386
3/9/20,South Australia,Australia,7,0,2,-34.9285,138.6007
3/9/20,Alberta,Canada,7,0,0,53.9333,-116.5765
3/9/20,"Cook County, IL",United States,7,0,2,41.7377,-87.6976
3/9/20,"Middlesex County, MA",United States,7,0,0,42.4672,-71.2874
3/9/20,"Placer County, CA",United States,7,1,0,39.0916,-120.8039
3/9/20,"Fort Bend County, TX",United States,6,0,0,29.5693,-95.8143
3/9/20,"Harris County, TX",United States,6,0,0,29.7752,-95.3103
3/9/20,"Norfolk County, MA",United States,6,0,0,42.1767,-71.1449
3/9/20,"Fulton County, GA",United States,5,0,0,33.8034,-84.3963
3/9/20,"Montgomery County, PA",United States,5,0,0,40.229,-75.3879
3/9/20,"Unassigned Location, WA",United States,5,0,0,47.7511,-120.7401
3/9/20,Western Australia,Australia,4,1,0,-31.9505,115.8605
3/9/20,"Bergen County, NJ",United States,4,0,0,40.9263,-74.077
3/9/20,"Grafton County, NH",United States,4,0,0,43.9088,-71.826
3/9/20,"Kershaw County, SC",United States,4,0,0,34.3672,-80.5883
3/9/20,"Montgomery County, MD",United States,4,0,0,39.1547,-77.2405
3/9/20,"Orange County, CA",United States,4,0,0,33.7879,-117.8531
3/9/20,"Pierce County, WA",United States,4,0,0,47.0676,-122.1295
3/9/20,"Rockland County, NY",United States,4,0,0,41.1489,-73.983
3/9/20,Quebec,Canada,3,0,0,52.9399,-73.5491
3/9/20,"Broward County, FL",United States,3,0,0,26.1901,-80.3659
3/9/20,"Cobb County, GA",United States,3,0,0,33.8999,-84.5641
3/9/20,"Douglas County, CO",United States,3,0,0,39.2587,-104.9389
3/9/20,"Douglas County, NE",United States,3,0,0,41.3148,-96.1951
3/9/20,"Johnson County, IA",United States,3,0,0,41.6699,-91.5984
3/9/20,"Maricopa County, AZ",United States,3,0,1,33.2918,-112.4291
3/9/20,"Providence County, RI",United States,3,0,0,41.8882,-71.4774
3/9/20,"San Diego County, CA",United States,3,0,1,32.7157,-117.1611
3/9/20,"Sonoma County, CA",United States,3,0,0,38.578,-122.9888
3/9/20,Tasmania,Australia,2,0,0,-41.4545,145.9707
3/9/20,"Alameda County, CA",United States,2,0,0,37.6017,-121.7195
3/9/20,"Clark County, NV",United States,2,0,0,36.0796,-115.094
3/9/20,"Denver County, CO",United States,2,0,0,39.7392,-104.9903
3/9/20,"Fairfax County, VA",United States,2,0,0,38.9085,-77.2405
3/9/20,"Harrison County, KY",United States,2,0,0,38.4333,-84.3542
3/9/20,"Hendricks County, IN",United States,2,0,0,39.8065,-86.5401
3/9/20,"Hillsborough, FL",United States,2,0,0,27.9904,-82.3018
3/9/20,"Honolulu County, HI",United States,2,0,0,21.307,-157.8584
3/9/20,"Jackson County, OR",United States,2,0,0,42.3345,-122.7647
3/9/20,"Lee County, FL",United States,2,1,0,26.663,-81.9535
3/9/20,"Manatee County, FL",United States,2,0,0,27.4799,-82.3452
3/9/20,"Pinal County, AZ",United States,2,0,0,32.8162,-111.2845
3/9/20,"Sacramento County, CA",United States,2,0,0,38.4747,-121.3542
3/9/20,"San Benito, CA",United States,2,0,0,36.5761,-120.9876
3/9/20,"San Mateo, CA",United States,2,0,0,37.563,-122.3255
3/9/20,"Saratoga County, NY",United States,2,0,0,43.0324,-73.936
3/9/20,"Summit County, CO",United States,2,0,0,39.5912,-106.064
3/9/20,"Washington, D.C.",United States,2,0,0,38.9072,-77.0369
3/9/20,"Washoe County, NV",United States,2,0,0,40.5608,-119.6035
3/9/20,Tibet,China,1,0,1,31.6927,88.0924
3/9/20,Sundsvall,Sweden,248,0,1,63,16
3/9/20,"Bennington County, VT",United States,1,0,0,43.0279,-73.135
3/9/20,"Berkshire County, MA",United States,1,0,0,42.3118,-73.1822
3/9/20,"Carver County, MN",United States,1,0,0,44.8254,-93.7842
3/9/20,"Charleston County, SC",United States,1,0,0,32.7957,-79.7848
3/9/20,"Charlotte County, FL",United States,1,0,0,26.8946,-81.9098
3/9/20,"Chatham County, NC",United States,1,0,0,35.7211,-79.1781
3/9/20,"Cherokee County, GA",United States,1,0,0,34.2515,-84.4803
3/9/20,"Clark County, WA",United States,1,0,0,45.7466,-122.5194
3/9/20,"Collin County, TX",United States,1,0,0,33.1795,-96.493
3/9/20,"Davidson County, TN",United States,1,0,0,36.1343,-86.822
3/9/20,"Davis County, UT",United States,1,0,0,40.9629,-112.0953
3/9/20,"Delaware County, PA",United States,1,0,0,39.9078,-75.3879
3/9/20,"Douglas County, OR",United States,1,0,0,43.1261,-123.2492
3/9/20,"El Paso County, CO",United States,1,0,0,38.9108,-104.4723
3/9/20,"Fairfield County, CT",United States,1,0,0,41.256,-73.3709
3/9/20,"Fayette County, KY",United States,1,0,0,38.0606,-84.4803
3/9/20,"Fresno County, CA",United States,1,0,0,36.9859,-119.2321
3/9/20,"Grant County, WA",United States,1,1,0,47.1981,-119.3732
3/9/20,"Harford County, MD",United States,1,0,0,39.5839,-76.3637
3/9/20,"Hudson County, NJ",United States,1,0,0,40.7453,-74.0535
3/9/20,"Humboldt County, CA",United States,1,0,0,40.745,-123.8695
3/9/20,"Jefferson County, KY",United States,1,0,0,38.1938,-85.6435
3/9/20,"Jefferson County, WA",United States,1,0,0,47.7425,-123.304
3/9/20,"Jefferson Parish, LA",United States,1,0,0,29.6499,-90.1121
3/9/20,"Johnson County, KS",United States,1,0,0,38.8454,-94.8521
3/9/20,"Kittitas County, WA",United States,1,0,0,47.175,-120.9319
3/9/20,"Klamath County, OR",United States,1,0,0,42.6953,-121.6142
3/9/20,"Madera County, CA",United States,1,0,0,37.2519,-119.6963
3/9/20,"Madison, WI",United States,1,0,1,43.0731,-89.4012
3/9/20,"Marion County, IN",United States,1,0,0,39.8362,-86.1752
3/9/20,"Marion County, OR",United States,1,0,0,44.8446,-122.5927
3/9/20,"Okaloosa County, FL",United States,1,0,0,30.5773,-86.6611
3/9/20,"Plymouth County, MA",United States,1,0,0,42.1615,-70.7928
3/9/20,"Polk County, GA",United States,1,0,0,34.0132,-85.1479
3/9/20,"Ramsey County, MN",United States,1,0,0,44.9964,-93.0616
3/9/20,"Riverside County, CA",United States,1,0,0,33.9533,-117.3961
3/9/20,"Rockingham County, NH",United States,1,0,0,42.9931,-71.0498
3/9/20,"San Antonio, TX",United States,1,0,0,29.4241,-98.4936
3/9/20,"Santa Rosa County, FL",United States,1,1,0,30.769,-86.9824
3/9/20,"Sarasota, FL",United States,1,0,0,27.3364,-82.5307
3/9/20,"Shasta County, CA",United States,1,0,0,40.7909,-121.8474
3/9/20,"Shelby County, TN",United States,1,0,0,35.1269,-89.9253
3/9/20,"Spartanburg County, SC",United States,1,0,0,34.8606,-81.9535
3/9/20,"Spokane County, WA",United States,1,0,0,47.6587,-117.4225
3/9/20,"St. Louis County, MO",United States,1,0,0,38.6103,-90.4125
3/9/20,"Suffolk County, NY",United States,1,0,0,40.9849,-72.6151
3/9/20,"Tulsa County, OK",United States,1,0,0,36.1593,-95.941
3/9/20,"Ulster County, NY",United States,1,0,0,41.8586,-74.3118
3/9/20,"Umatilla, OR",United States,1,0,0,45.775,-118.7606
3/9/20,Massachusetts,United States,1,0,0,42.4072,-71.3824
3/9/20,"Volusia County, FL",United States,1,0,0,29.028,-81.0755
3/9/20,"Wake County, NC",United States,1,0,0,35.8032,-78.5661
3/9/20,"Wayne County, PA",United States,1,0,0,41.6739,-75.2479
3/9/20,"Williamson County, TN",United States,1,0,0,35.9179,-86.8622
3/9/20,"Yolo County, CA",United States,1,0,0,38.7646,-121.9018
3/9/20,From Diamond Princess,Australia,0,0,0,35.4437,139.638
3/9/20,Northern Territory,Australia,0,0,0,-12.4634,130.8456
3/9/20,"Lackland, TX (From Diamond Princess)",United States,0,0,0,29.3829,-98.6134
3/9/20,"Montgomery County, TX",United States,0,0,0,30.3213,-95.4778
3/9/20,"Omaha, NE (From Diamond Princess)",United States,0,0,0,41.2545,-95.9758
3/9/20,"Travis, CA (From Diamond Princess)",United States,0,0,0,38.2721,-121.9399
3/9/20,Unknown,Switzerland,374,2,3,46.8182,8.2275
3/9/20,Lop Buri,Thailand,50,1,31,15,101
3/9/20,Unknown,Togo,1,0,0,8.6195,0.8248
3/9/20,Unknown,Tunisia,2,0,0,33.8869,9.5375
3/9/20,Liverpool,United Kingdom,321,4,18,55,-3
3/9/20,Unknown,Ukraine,1,0,0,48.3794,31.1656
3/9/20,Abu Dhabi,United Arab Emirates,45,0,7,24,54
3/9/20,Unknown,Vatican City,1,0,0,41.9029,12.4534
3/9/20,Quang Ha,Vietnam,30,0,16,16,108
3/8/20,Unknown,Afghanistan,4,0,0,33,65
3/8/20,Unknown,Algeria,19,0,0,28.0339,1.6596
3/8/20,Unknown,Andorra,1,0,0,42.5063,1.5218
3/8/20,Unknown,Argentina,12,1,0,-38.4161,-63.6167
3/8/20,Unknown,Armenia,1,0,0,40.0691,45.0382
3/8/20,Unknown,Austria,104,0,0,47.5162,14.5501
3/8/20,Unknown,Azerbaijan,9,0,0,40.1431,47.5769
3/8/20,Unknown,Bahrain,85,0,4,26.0275,50.55
3/8/20,Unknown,Bangladesh,3,0,0,23.685,90.3563
3/8/20,Unknown,Belarus,6,0,0,53.7098,27.9534
3/8/20,Brussels,Belgium,200,0,1,50.8333,4
3/8/20,Unknown,Bhutan,1,0,0,27.5142,90.4336
3/8/20,Unknown,Bosnia and Herzegovina,3,0,0,43.9159,17.6791
3/8/20,Unknown,Brazil,20,0,0,-14.235,-51.9253
3/8/20,Unknown,Bulgaria,4,0,0,42.7339,25.4858
3/8/20,Phnom Penh,Cambodia,2,0,1,11.55,104.9167
3/8/20,Unknown,Cameroon,2,0,0,3.848,11.5021
3/8/20,Unknown,Chile,8,0,0,-35.6751,-71.543
3/8/20,Unknown,Colombia,1,0,0,4.5709,-74.2973
3/8/20,Unknown,Costa Rica,5,0,0,9.7489,-83.7534
3/8/20,Unknown,Croatia,12,0,0,45.1667,15.5
3/8/20,Unknown,Denmark,35,0,1,56.2639,9.5018
3/8/20,Unknown,Dominican Republic,5,0,0,18.7357,-70.1627
3/8/20,Unknown,Ecuador,14,0,0,-1.8312,-78.1834
3/8/20,Unknown,Egypt,49,1,1,26,30
3/8/20,Unknown,Estonia,10,0,0,58.5953,25.0136
3/8/20,Unknown,Faroe Islands,2,0,0,61.8926,-6.9118
3/8/20,Kajaani,Finland,23,0,1,64,26
3/8/20,Orleans,France,1126,19,12,47,2
3/8/20,Unknown,French Guiana,5,0,0,3.9339,-53.1258
3/8/20,Unknown,Georgia,13,0,0,42.3154,43.3569
3/8/20,Kassel,Germany,1040,0,18,51,9
3/8/20,Unknown,Gibraltar,1,0,0,36.1408,-5.3536
3/8/20,Unknown,Greece,73,0,0,39.0742,21.8243
3/8/20,Unknown,Hungary,7,0,0,47.1625,19.5033
3/8/20,Unknown,Iceland,50,0,0,64.9631,-19.0208
3/8/20,Nagpur,India,39,0,3,21,78
3/8/20,Unknown,Indonesia,6,0,0,-0.7893,113.9213
3/8/20,Unknown,Iraq,60,6,0,33,44
3/8/20,Unknown,Ireland,19,0,0,53.4167,-8
3/8/20,Unknown,Israel,39,0,2,31,35
3/8/20,Arezzo,Italy,7375,366,622,43,12
3/8/20,Unknown,Jordan,1,0,0,31.24,36.51
3/8/20,Unknown,Kuwait,64,0,1,29.5,47.75
3/8/20,Unknown,Latvia,2,0,0,56.8796,24.6032
3/8/20,Unknown,Lebanon,32,0,1,33.8547,35.8623
3/8/20,Unknown,Liechtenstein,1,0,0,47.14,9.55
3/8/20,Unknown,Lithuania,1,0,0,55.1694,23.8813
3/8/20,Unknown,Luxembourg,3,0,0,49.8144,6.1317
3/8/20,Sibu,Malaysia,99,0,24,2.5,112.5
3/8/20,Unknown,Maldives,4,0,0,3.2028,73.2207
3/8/20,Unknown,Malta,3,0,0,35.9375,14.3754
3/8/20,Unknown,Martinique,2,0,0,14.6415,-61.0242
3/8/20,Fresnillo,Mexico,7,0,1,23,-102
3/8/20,Unknown,Moldova,1,0,0,47.4116,28.3699
3/8/20,Unknown,Monaco,1,0,0,43.7333,7.4167
3/8/20,Unknown,Morocco,2,0,0,31.7917,-7.0926
3/8/20,Pokhara,Nepal,1,0,1,28.1667,84.25
3/8/20,Unknown,Netherlands,265,3,0,52.1326,5.2913
3/8/20,Unknown,New Zealand,5,0,0,-40.9006,174.886
3/8/20,Unknown,Nigeria,1,0,0,9.082,8.6753
3/8/20,Unknown,North Macedonia,3,0,0,41.6086,21.7453
3/8/20,Unknown,Norway,176,0,0,60.472,8.4689
3/8/20,Dawwah,Oman,16,0,2,21,57
3/8/20,Quetta,Pakistan,6,0,1,30.3753,69.3451
3/8/20,Unknown,Palestine,22,0,0,31.9522,35.2332
3/8/20,Unknown,Paraguay,1,0,0,-23.4425,-58.4438
3/8/20,Unknown,Peru,6,0,0,-9.19,-75.0152
3/8/20,Boac,Philippines,10,1,1,13,122
3/8/20,Unknown,Poland,11,0,0,51.9194,19.1451
3/8/20,Unknown,Portugal,30,0,0,39.3999,-8.2245
3/8/20,Unknown,Qatar,15,0,0,25.3548,51.1839
3/8/20,Unknown,Republic of Ireland,21,0,0,53.1424,-7.6921
3/8/20,Unknown,Romania,15,0,3,46,25
3/8/20,Unknown,Russia,17,0,3,60,90
3/8/20,Unknown,Saint Barthelemy,3,0,0,17.9,-62.8333
3/8/20,Unknown,San Marino,36,1,0,43.9424,12.4578
3/8/20,Unknown,Saudi Arabia,11,0,0,24,45
3/8/20,Unknown,Senegal,4,0,1,14.4974,-14.4524
3/8/20,Unknown,Serbia,1,0,0,44.0165,21.0059
3/8/20,Singapore,Singapore,150,0,78,1.2833,103.8333
3/8/20,Unknown,Slovakia,3,0,0,48.669,19.699
3/8/20,Unknown,Slovenia,16,0,0,46.1512,14.9955
3/8/20,Unknown,South Africa,3,0,0,-30.5595,22.9375
3/8/20,Hubei,China,67707,2986,45235,30.9756,112.2707
3/8/20,Khomeyni Shahr,Iran,6566,194,2134,32,53
3/8/20,Guangdong,China,1352,7,1256,23.3417,113.4244
3/8/20,Henan,China,1272,22,1247,33.882,113.614
3/8/20,Zhejiang,China,1215,1,1161,29.1832,120.0934
3/8/20,Hunan,China,1018,4,968,27.6104,111.7088
3/8/20,Anhui,China,990,6,984,31.8257,117.2264
3/8/20,Jiangxi,China,935,1,919,27.614,115.7221
3/8/20,Shandong,China,758,6,642,36.3427,118.1498
3/8/20,Diamond Princess cruise ship,Others,696,6,40,35.4437,139.638
3/8/20,Jiangsu,China,631,0,612,32.9711,119.455
3/8/20,Chongqing,China,576,6,527,30.0572,107.874
3/8/20,Sichuan,China,539,3,464,30.6171,102.7103
3/8/20,Tokyo,Japan,502,6,76,36,138
3/8/20,Heilongjiang,China,481,13,412,47.862,127.7615
3/8/20,Beijing,China,428,8,308,40.1824,116.4142
3/8/20,Shanghai,China,342,3,314,31.202,121.4491
3/8/20,Hebei,China,318,6,307,38.0428,114.5149
3/8/20,Fujian,China,296,1,295,26.0789,117.9874
3/8/20,Guangxi,China,252,2,223,23.8298,108.7881
3/8/20,Shaanxi,China,245,1,227,35.1917,108.8701
3/8/20,Yunnan,China,174,2,170,24.974,101.487
3/8/20,Hainan,China,168,6,159,19.1959,109.7453
3/8/20,Guizhou,China,146,2,117,26.8154,106.8748
3/8/20,Tianjin,China,136,3,128,39.3054,117.323
3/8/20,Shanxi,China,133,0,126,37.5777,112.2922
3/8/20,Liaoning,China,125,1,109,41.2956,122.6085
3/8/20,Gansu,China,124,2,87,36.0611,103.8343
3/8/20,Hong Kong,Hong Kong,114,3,58,22.3,114.2
3/8/20,Jilin,China,93,1,90,43.6661,126.1923
3/8/20,"King County, WA",United States,83,17,1,47.548,-121.9836
3/8/20,"Westchester County, NY",United States,83,0,0,41.122,-73.7949
3/8/20,Xinjiang,China,76,3,73,41.1129,85.2401
3/8/20,Inner Mongolia,China,75,1,70,44.0935,113.9448
3/8/20,Ningxia,China,75,0,71,37.2692,106.1655
3/8/20,Daegu,South Korea,7314,50,118,36,128
3/8/20,Taiwan,Taiwan,45,1,13,23.7,121
3/8/20,Unassigned Location (From Diamond Princess),United States,45,0,0,35.4437,139.638
3/8/20,New South Wales,Australia,38,3,4,-33.8688,151.2093
3/8/20,"Santa Clara County, CA",United States,38,0,1,37.3541,-121.9552
3/8/20,Prague,Czech Republic,31,0,0,49.8175,15.473
3/8/20,"Snohomish County, WA",United States,31,1,0,48.033,-121.8339
3/8/20,"Toronto, ON",Canada,28,0,3,43.6532,-79.3832
3/8/20,British Columbia,Canada,27,0,4,49.2827,-123.1207
3/8/20,Grand Princess Cruise Ship,United States,21,0,0,37.6489,-122.6655
3/8/20,Qinghai,China,18,0,18,35.7452,95.9956
3/8/20,Queensland,Australia,15,0,8,-28.0167,153.4
3/8/20,"Los Angeles, CA",United States,14,0,0,34.0522,-118.2437
3/8/20,"Contra Costa County, CA",United States,12,0,0,37.8534,-121.9018
3/8/20,"New York County, NY",United States,12,0,0,40.7128,-74.006
3/8/20,Victoria,Australia,11,0,7,-37.8136,144.9631
3/8/20,Macau,Macau,10,0,10,22.1667,113.55
3/8/20,"San Francisco County, CA",United States,9,0,0,37.7749,-122.4194
3/8/20,"Suffolk County, MA",United States,8,0,1,42.3601,-71.0589
3/8/20,"Washington County, OR",United States,8,0,0,45.547,-123.1386
3/8/20,South Australia,Australia,7,0,2,-34.9285,138.6007
3/8/20,"Cook County, IL",United States,7,0,2,41.7377,-87.6976
3/8/20,"Middlesex County, MA",United States,7,0,0,42.4672,-71.2874
3/8/20,"Fort Bend County, TX",United States,6,0,0,29.5693,-95.8143
3/8/20,"Norfolk County, MA",United States,6,0,0,42.1767,-71.1449
3/8/20,"Harris County, TX",United States,5,0,0,29.7752,-95.3103
3/8/20,"Nassau County, NY",United States,5,0,0,40.6546,-73.5594
3/8/20,"Placer County, CA",United States,5,1,0,39.0916,-120.8039
3/8/20,"Unassigned Location, WA",United States,5,0,0,47.7511,-120.7401
3/8/20,"Montreal, QC",Canada,4,0,0,45.5017,-73.5673
3/8/20,"Bergen County, NJ",United States,4,0,0,40.9263,-74.077
3/8/20,"Grafton County, NH",United States,4,0,0,43.9088,-71.826
3/8/20,"Montgomery County, MD",United States,4,0,0,39.1547,-77.2405
3/8/20,"Montgomery County, PA",United States,4,0,0,40.229,-75.3879
3/8/20,"Pierce County, WA",United States,4,0,0,47.0676,-122.1295
3/8/20,Western Australia,Australia,3,1,0,-31.9505,115.8605
3/8/20,"Edmonton, Alberta",Canada,3,0,0,53.5461,-113.4938
3/8/20,Madrid,Spain,673,17,30,40,-4
3/8/20,"Douglas County, CO",United States,3,0,0,39.2587,-104.9389
3/8/20,"Fulton County, GA",United States,3,0,0,33.8034,-84.3963
3/8/20,"Maricopa County, AZ",United States,3,0,1,33.2918,-112.4291
3/8/20,"Orange County, CA",United States,3,0,0,33.7879,-117.8531
3/8/20,"Providence County, RI",United States,3,0,0,41.8882,-71.4774
3/8/20,"San Diego County, CA",United States,3,0,1,32.7157,-117.1611
3/8/20,Tasmania,Australia,2,0,0,-41.4545,145.9707
3/8/20,"Alameda County, CA",United States,2,0,0,37.6017,-121.7195
3/8/20,"Broward County, FL",United States,2,0,0,26.1901,-80.3659
3/8/20,"Clark County, NV",United States,2,0,0,36.0796,-115.094
3/8/20,"Denver County, CO",United States,2,0,0,39.7392,-104.9903
3/8/20,"Fairfax County, VA",United States,2,0,0,38.9085,-77.2405
3/8/20,"Hillsborough, FL",United States,2,0,0,27.9904,-82.3018
3/8/20,"Jackson County, OR",United States,2,0,0,42.3345,-122.7647
3/8/20,"Lee County, FL",United States,2,1,0,26.663,-81.9535
3/8/20,"Pinal County, AZ",United States,2,0,0,32.8162,-111.2845
3/8/20,"Rockingham County, NH",United States,2,0,0,42.9931,-71.0498
3/8/20,"Rockland County, NY",United States,2,0,0,41.1489,-73.983
3/8/20,"Sacramento County, CA",United States,2,0,0,38.4747,-121.3542
3/8/20,"San Benito, CA",United States,2,0,0,36.5761,-120.9876
3/8/20,"San Mateo, CA",United States,2,0,0,37.563,-122.3255
3/8/20,"Saratoga County, NY",United States,2,0,0,43.0324,-73.936
3/8/20,"Summit County, CO",United States,2,0,0,39.5912,-106.064
3/8/20,"Washington, D.C.",United States,2,0,0,38.9072,-77.0369
3/8/20,"Washoe County, NV",United States,2,0,0,40.5608,-119.6035
3/8/20,"Calgary, Alberta",Canada,1,0,0,51.0447,-114.0719
3/8/20,"London, ON",Canada,1,0,1,42.9849,-81.2453
3/8/20,Tibet,China,1,0,1,31.6927,88.0924
3/8/20,"Berkshire County, MA",United States,1,0,0,42.3118,-73.1822
3/8/20,"Charleston County, SC",United States,1,0,0,32.7957,-79.7848
3/8/20,"Chatham County, NC",United States,1,0,0,35.7211,-79.1781
3/8/20,"Clark County, WA",United States,1,0,0,45.7466,-122.5194
3/8/20,"Cobb County, GA",United States,1,0,0,33.8999,-84.5641
3/8/20,"Davidson County, TN",United States,1,0,0,36.1343,-86.822
3/8/20,"Davis County, UT",United States,1,0,0,40.9629,-112.0953
3/8/20,"Delaware County, PA",United States,1,0,0,39.9078,-75.3879
3/8/20,"Douglas County, NE",United States,1,0,0,41.3148,-96.1951
3/8/20,"Douglas County, OR",United States,1,0,0,43.1261,-123.2492
3/8/20,"El Paso County, CO",United States,1,0,0,38.9108,-104.4723
3/8/20,"Fairfield County, CT",United States,1,0,0,41.256,-73.3709
3/8/20,"Fayette County, KY",United States,1,0,0,38.0606,-84.4803
3/8/20,"Fresno County, CA",United States,1,0,0,36.9859,-119.2321
3/8/20,"Grant County, WA",United States,1,0,0,47.1981,-119.3732
3/8/20,"Harford County, MD",United States,1,0,0,39.5839,-76.3637
3/8/20,"Hendricks County, IN",United States,1,0,0,39.8065,-86.5401
3/8/20,"Honolulu County, HI",United States,1,0,0,21.307,-157.8584
3/8/20,"Hudson County, NJ",United States,1,0,0,40.7453,-74.0535
3/8/20,"Humboldt County, CA",United States,1,0,0,40.745,-123.8695
3/8/20,"Jefferson County, WA",United States,1,0,0,47.7425,-123.304
3/8/20,"Johnson County, KS",United States,1,0,0,38.8454,-94.8521
3/8/20,"Kershaw County, SC",United States,1,0,0,34.3672,-80.5883
3/8/20,"Kittitas County, WA",United States,1,0,0,47.175,-120.9319
3/8/20,"Klamath County, OR",United States,1,0,0,42.6953,-121.6142
3/8/20,"Madera County, CA",United States,1,0,0,37.2519,-119.6963
3/8/20,"Madison, WI",United States,1,0,1,43.0731,-89.4012
3/8/20,"Manatee County, FL",United States,1,0,0,27.4799,-82.3452
3/8/20,"Marion County, IN",United States,1,0,0,39.8362,-86.1752
3/8/20,"Marion County, OR",United States,1,0,0,44.8446,-122.5927
3/8/20,"Okaloosa County, FL",United States,1,0,0,30.5773,-86.6611
3/8/20,"Plymouth County, MA",United States,1,0,0,42.1615,-70.7928
3/8/20,"Polk County, GA",United States,1,0,0,34.0132,-85.1479
3/8/20,"Ramsey County, MN",United States,1,0,0,44.9964,-93.0616
3/8/20,"Riverside County, CA",United States,1,0,0,33.9533,-117.3961
3/8/20,"San Antonio, TX",United States,1,0,0,29.4241,-98.4936
3/8/20,"Santa Rosa County, FL",United States,1,1,0,30.769,-86.9824
3/8/20,"Sarasota, FL",United States,1,0,0,27.3364,-82.5307
3/8/20,"Shelby County, TN",United States,1,0,0,35.1269,-89.9253
3/8/20,"Sonoma County, CA",United States,1,0,0,38.578,-122.9888
3/8/20,"Spokane County, WA",United States,1,0,0,47.6587,-117.4225
3/8/20,"St. Louis County, MO",United States,1,0,0,38.6103,-90.4125
3/8/20,"Suffolk County, NY",United States,1,0,0,40.9849,-72.6151
3/8/20,"Tulsa County, OK",United States,1,0,0,36.1593,-95.941
3/8/20,"Ulster County, NY",United States,1,0,0,41.8586,-74.3118
3/8/20,"Umatilla, OR",United States,1,0,0,45.775,-118.7606
3/8/20,"Unassigned Location, VT",United States,1,0,0,44.3378,-72.7563
3/8/20,Massachusetts,United States,1,0,0,42.4072,-71.3824
3/8/20,"Volusia County, FL",United States,1,0,0,29.028,-81.0755
3/8/20,"Wake County, NC",United States,1,0,0,35.8032,-78.5661
3/8/20,"Wayne County, PA",United States,1,0,0,41.6739,-75.2479
3/8/20,"Williamson County, TN",United States,1,0,0,35.9179,-86.8622
3/8/20,"Yolo County, CA",United States,1,0,0,38.7646,-121.9018
3/8/20,From Diamond Princess,Australia,0,0,0,35.4437,139.638
3/8/20,Northern Territory,Australia,0,0,0,-12.4634,130.8456
3/8/20,"Lackland, TX (From Diamond Princess)",United States,0,0,0,29.3829,-98.6134
3/8/20,"Montgomery County, TX",United States,0,0,0,30.3213,-95.4778
3/8/20,"Omaha, NE (From Diamond Princess)",United States,0,0,0,41.2545,-95.9758
3/8/20,"Travis, CA (From Diamond Princess)",United States,0,0,0,38.2721,-121.9399
3/8/20,Kandy,Sri Lanka,1,0,1,7,81
3/8/20,Sundsvall,Sweden,203,0,0,63,16
3/8/20,Unknown,Switzerland,337,2,3,46.8182,8.2275
3/8/20,Lop Buri,Thailand,50,1,31,15,101
3/8/20,Unknown,Togo,1,0,0,8.6195,0.8248
3/8/20,Unknown,Tunisia,2,0,0,33.8869,9.5375
3/8/20,Liverpool,United Kingdom,273,3,18,55,-3
3/8/20,Unknown,Ukraine,1,0,0,48.3794,31.1656
3/8/20,Abu Dhabi,United Arab Emirates,45,0,7,24,54
3/8/20,Unknown,Vatican City,1,0,0,41.9029,12.4534
3/8/20,Quang Ha,Vietnam,30,0,16,16,108
3/7/20,Unknown,Afghanistan,1,0,0,33,65
3/7/20,Unknown,Algeria,17,0,0,28.0339,1.6596
3/7/20,Unknown,Andorra,1,0,0,42.5063,1.5218
3/7/20,Unknown,Argentina,8,0,0,-38.4161,-63.6167
3/7/20,Unknown,Armenia,1,0,0,40.0691,45.0382
3/7/20,Unknown,Austria,79,0,0,47.5162,14.5501
3/7/20,Unknown,Azerbaijan,9,0,0,40.1431,47.5769
3/7/20,Unknown,Bahrain,85,0,4,26.0275,50.55
3/7/20,Unknown,Belarus,6,0,0,53.7098,27.9534
3/7/20,Brussels,Belgium,169,0,1,50.8333,4
3/7/20,Unknown,Bhutan,1,0,0,27.5142,90.4336
3/7/20,Unknown,Bosnia and Herzegovina,3,0,0,43.9159,17.6791
3/7/20,Unknown,Brazil,13,0,0,-14.235,-51.9253
3/7/20,Phnom Penh,Cambodia,1,0,1,11.55,104.9167
3/7/20,Unknown,Cameroon,1,0,0,3.848,11.5021
3/7/20,Unknown,Chile,4,0,0,-35.6751,-71.543
3/7/20,Unknown,Colombia,1,0,0,4.5709,-74.2973
3/7/20,Unknown,Costa Rica,1,0,0,9.7489,-83.7534
3/7/20,Unknown,Croatia,12,0,0,45.1667,15.5
3/7/20,Unknown,Denmark,23,0,1,56.2639,9.5018
3/7/20,Unknown,Dominican Republic,2,0,0,18.7357,-70.1627
3/7/20,Unknown,Ecuador,13,0,0,-1.8312,-78.1834
3/7/20,Unknown,Egypt,15,0,1,26,30
3/7/20,Unknown,Estonia,10,0,0,58.5953,25.0136
3/7/20,Unknown,Faroe Islands,1,0,0,61.8926,-6.9118
3/7/20,Kajaani,Finland,15,0,1,64,26
3/7/20,Orleans,France,949,11,12,47,2
3/7/20,Unknown,French Guiana,5,0,0,3.9339,-53.1258
3/7/20,Unknown,Georgia,4,0,0,42.3154,43.3569
3/7/20,Kassel,Germany,799,0,18,51,9
3/7/20,Unknown,Gibraltar,1,0,0,36.1408,-5.3536
3/7/20,Unknown,Greece,46,0,0,39.0742,21.8243
3/7/20,Unknown,Hungary,4,0,0,47.1625,19.5033
3/7/20,Unknown,Iceland,50,0,0,64.9631,-19.0208
3/7/20,Nagpur,India,34,0,3,21,78
3/7/20,Unknown,Indonesia,4,0,0,-0.7893,113.9213
3/7/20,Unknown,Iraq,54,4,0,33,44
3/7/20,Unknown,Ireland,18,0,0,53.1424,-7.6921
3/7/20,Unknown,Israel,21,0,2,31,35
3/7/20,Arezzo,Italy,5883,233,589,43,12
3/7/20,Unknown,Jordan,1,0,0,31.24,36.51
3/7/20,Unknown,Kuwait,61,0,0,29.5,47.75
3/7/20,Unknown,Latvia,1,0,0,56.8796,24.6032
3/7/20,Unknown,Lebanon,22,0,1,33.8547,35.8623
3/7/20,Unknown,Liechtenstein,1,0,0,47.14,9.55
3/7/20,Unknown,Lithuania,1,0,0,55.1694,23.8813
3/7/20,Unknown,Luxembourg,2,0,0,49.8144,6.1317
3/7/20,Sibu,Malaysia,93,0,23,2.5,112.5
3/7/20,Unknown,Malta,3,0,0,35.9375,14.3754
3/7/20,Unknown,Martinique,2,0,0,14.6415,-61.0242
3/7/20,Fresnillo,Mexico,6,0,1,23,-102
3/7/20,Unknown,Monaco,1,0,0,43.7333,7.4167
3/7/20,Unknown,Morocco,2,0,0,31.7917,-7.0926
3/7/20,Pokhara,Nepal,1,0,1,28.1667,84.25
3/7/20,Unknown,Netherlands,188,1,0,52.1326,5.2913
3/7/20,Unknown,New Zealand,5,0,0,-40.9006,174.886
3/7/20,Unknown,Nigeria,1,0,0,9.082,8.6753
3/7/20,Unknown,North Macedonia,3,0,0,41.6086,21.7453
3/7/20,Unknown,Norway,147,0,0,60.472,8.4689
3/7/20,Dawwah,Oman,16,0,2,21,57
3/7/20,Quetta,Pakistan,6,0,0,30.3753,69.3451
3/7/20,Unknown,Palestine,22,0,0,31.9522,35.2332
3/7/20,Unknown,Peru,1,0,0,-9.19,-75.0152
3/7/20,Boac,Philippines,6,1,1,13,122
3/7/20,Unknown,Poland,5,0,0,51.9194,19.1451
3/7/20,Unknown,Portugal,20,0,0,39.3999,-8.2245
3/7/20,Unknown,Qatar,8,0,0,25.3548,51.1839
3/7/20,Unknown,Romania,9,0,3,46,25
3/7/20,Unknown,Russia,13,0,2,60,90
3/7/20,Unknown,Saint Barthelemy,3,0,0,17.9,-62.8333
3/7/20,Unknown,San Marino,23,1,0,43.9424,12.4578
3/7/20,Unknown,Saudi Arabia,5,0,0,24,45
3/7/20,Unknown,Senegal,4,0,0,14.4974,-14.4524
3/7/20,Unknown,Serbia,1,0,0,44.0165,21.0059
3/7/20,Hubei,China,67666,2959,43500,30.9756,112.2707
3/7/20,Khomeyni Shahr,Iran,5823,145,1669,32,53
3/7/20,Guangdong,China,1352,7,1237,23.3417,113.4244
3/7/20,Henan,China,1272,22,1244,33.882,113.614
3/7/20,Zhejiang,China,1215,1,1154,29.1832,120.0934
3/7/20,Hunan,China,1018,4,960,27.6104,111.7088
3/7/20,Anhui,China,990,6,979,31.8257,117.2264
3/7/20,Jiangxi,China,935,1,916,27.614,115.7221
3/7/20,Shandong,China,758,6,627,36.3427,118.1498
3/7/20,Diamond Princess cruise ship,Others,696,6,40,35.4437,139.638
3/7/20,Jiangsu,China,631,0,606,32.9711,119.455
3/7/20,Chongqing,China,576,6,526,30.0572,107.874
3/7/20,Sichuan,China,539,3,454,30.6171,102.7103
3/7/20,Heilongjiang,China,481,13,403,47.862,127.7615
3/7/20,Tokyo,Japan,461,6,76,36,138
3/7/20,Beijing,China,426,8,303,40.1824,116.4142
3/7/20,Shanghai,China,342,3,313,31.202,121.4491
3/7/20,Hebei,China,318,6,307,38.0428,114.5149
3/7/20,Fujian,China,296,1,295,26.0789,117.9874
3/7/20,Guangxi,China,252,2,218,23.8298,108.7881
3/7/20,Shaanxi,China,245,1,226,35.1917,108.8701
3/7/20,Yunnan,China,174,2,170,24.974,101.487
3/7/20,Hainan,China,168,6,158,19.1959,109.7453
3/7/20,Guizhou,China,146,2,115,26.8154,106.8748
3/7/20,Singapore,Singapore,138,0,78,1.2833,103.8333
3/7/20,Tianjin,China,136,3,128,39.3054,117.323
3/7/20,Shanxi,China,133,0,126,37.5777,112.2922
3/7/20,Liaoning,China,125,1,107,41.2956,122.6085
3/7/20,Gansu,China,120,2,87,36.0611,103.8343
3/7/20,Hong Kong,Hong Kong,108,2,51,22.3,114.2
3/7/20,Jilin,China,93,1,90,43.6661,126.1923
3/7/20,Xinjiang,China,76,3,72,41.1129,85.2401
3/7/20,Inner Mongolia,China,75,1,67,44.0935,113.9448
3/7/20,Ningxia,China,75,0,71,37.2692,106.1655
3/7/20,"King County, WA",United States,71,15,1,47.548,-121.9836
3/7/20,"Westchester County, NY",United States,57,0,0,41.122,-73.7949
3/7/20,Unknown,Slovakia,1,0,0,48.669,19.699
3/7/20,Taiwan,Taiwan,45,1,12,23.7,121
3/7/20,Unassigned Location (From Diamond Princess),United States,45,0,0,35.4437,139.638
3/7/20,"Santa Clara County, CA",United States,32,0,1,37.3541,-121.9552
3/7/20,New South Wales,Australia,28,1,4,-33.8688,151.2093
3/7/20,"Toronto, ON",Canada,27,0,3,43.6532,-79.3832
3/7/20,"Snohomish County, WA",United States,27,1,0,48.033,-121.8339
3/7/20,British Columbia,Canada,21,0,4,49.2827,-123.1207
3/7/20,Unknown,Slovenia,7,0,0,46.1512,14.9955
3/7/20,Grand Princess Cruise Ship,United States,21,0,0,37.6489,-122.6655
3/7/20,Prague,Czech Republic,19,0,0,49.8175,15.473
3/7/20,Qinghai,China,18,0,18,35.7452,95.9956
3/7/20,"Los Angeles, CA",United States,14,0,0,34.0522,-118.2437
3/7/20,Queensland,Australia,13,0,8,-28.0167,153.4
3/7/20,Unknown,South Africa,1,0,0,-30.5595,22.9375
3/7/20,Victoria,Australia,11,0,7,-37.8136,144.9631
3/7/20,"New York County, NY",United States,11,0,0,40.7128,-74.006
3/7/20,Macau,Macau,10,0,10,22.1667,113.55
3/7/20,"San Francisco County, CA",United States,9,0,0,37.7749,-122.4194
3/7/20,South Australia,Australia,7,0,2,-34.9285,138.6007
3/7/20,"Cook County, IL",United States,6,0,2,41.7377,-87.6976
3/7/20,"Harris County, TX",United States,5,0,0,29.7752,-95.3103
3/7/20,"Placer County, CA",United States,5,1,0,39.0916,-120.8039
3/7/20,"Unassigned Location, WA",United States,5,0,0,47.7511,-120.7401
3/7/20,"Bergen County, NJ",United States,4,0,0,40.9263,-74.077
3/7/20,"Nassau County, NY",United States,4,0,0,40.6546,-73.5594
3/7/20,Western Australia,Australia,3,1,0,-31.9505,115.8605
3/7/20,"Montreal, QC",Canada,3,0,0,45.5017,-73.5673
3/7/20,"Contra Costa County, CA",United States,3,0,0,37.8534,-121.9018
3/7/20,"Douglas County, CO",United States,3,0,0,39.2587,-104.9389
3/7/20,"Fort Bend County, TX",United States,3,0,0,29.5693,-95.8143
3/7/20,"Fulton County, GA",United States,3,0,0,33.8034,-84.3963
3/7/20,"Maricopa County, AZ",United States,3,0,1,33.2918,-112.4291
3/7/20,"Montgomery County, MD",United States,3,0,0,39.1547,-77.2405
3/7/20,"Orange County, CA",United States,3,0,0,33.7879,-117.8531
3/7/20,"Providence County, RI",United States,3,0,0,41.8882,-71.4774
3/7/20,"San Diego County, CA",United States,3,0,1,32.7157,-117.1611
3/7/20,"Suffolk County, MA",United States,3,0,1,42.3601,-71.0589
3/7/20,"Washington County, OR",United States,3,0,0,45.547,-123.1386
3/7/20,"Norfolk County, MA",United States,2,0,0,42.1767,-71.1449
3/7/20,"Alameda County, CA",United States,2,0,0,37.6017,-121.7195
3/7/20,"Broward County, FL",United States,2,0,0,26.1901,-80.3659
3/7/20,"Denver County, CO",United States,2,0,0,39.7392,-104.9903
3/7/20,"Fairfield County, CT",United States,2,0,0,41.256,-73.3709
3/7/20,"Floyd County, GA",United States,2,0,0,34.2829,-85.2308
3/7/20,"Grafton County, NH",United States,2,0,0,43.9088,-71.826
3/7/20,"Hillsborough, FL",United States,2,0,0,27.9904,-82.3018
3/7/20,"Lee County, FL",United States,2,0,0,26.663,-81.9535
3/7/20,"Pinal County, AZ",United States,2,0,0,32.8162,-111.2845
3/7/20,"Rockland County, NY",United States,2,0,0,41.1489,-73.983
3/7/20,"Sacramento County, CA",United States,2,0,0,38.4747,-121.3542
3/7/20,"San Benito, CA",United States,2,0,0,36.5761,-120.9876
3/7/20,"San Mateo, CA",United States,2,0,0,37.563,-122.3255
3/7/20,"Saratoga County, NY",United States,2,0,0,43.0324,-73.936
3/7/20,"Summit County, CO",United States,2,0,0,39.5912,-106.064
3/7/20,Tasmania,Australia,1,0,0,-41.4545,145.9707
3/7/20,"Calgary, Alberta",Canada,1,0,0,51.0447,-114.0719
3/7/20,"Edmonton, Alberta",Canada,1,0,0,53.5461,-113.4938
3/7/20,"London, ON",Canada,1,0,1,42.9849,-81.2453
3/7/20,Tibet,China,1,0,1,31.6927,88.0924
3/7/20,"Charleston County, SC",United States,1,0,0,32.7957,-79.7848
3/7/20,"Chatham County, NC",United States,1,0,0,35.7211,-79.1781
3/7/20,"Clark County, NV",United States,1,0,0,36.0796,-115.094
3/7/20,"Clark County, WA",United States,1,0,0,45.7466,-122.5194
3/7/20,"Cobb County, GA",United States,1,0,0,33.8999,-84.5641
3/7/20,"Davis County, UT",United States,1,0,0,40.9629,-112.0953
3/7/20,"Delaware County, PA",United States,1,0,0,39.9078,-75.3879
3/7/20,"Douglas County, NE",United States,1,0,0,41.3148,-96.1951
3/7/20,"El Paso County, CO",United States,1,0,0,38.9108,-104.4723
3/7/20,"Fayette County, KY",United States,1,0,0,38.0606,-84.4803
3/7/20,"Grant County, WA",United States,1,0,0,47.1981,-119.3732
3/7/20,"Honolulu County, HI",United States,1,0,0,21.307,-157.8584
3/7/20,"Humboldt County, CA",United States,1,0,0,40.745,-123.8695
3/7/20,"Jackson County, OR",United States,1,0,0,42.3345,-122.7647
3/7/20,"Jefferson County, WA",United States,1,0,0,47.7425,-123.304
3/7/20,"Kershaw County, SC",United States,1,0,0,34.3672,-80.5883
3/7/20,"Klamath County, OR",United States,1,0,0,42.6953,-121.6142
3/7/20,"Madera County, CA",United States,1,0,0,37.2519,-119.6963
3/7/20,"Madison, WI",United States,1,0,1,43.0731,-89.4012
3/7/20,"Marion County, IN",United States,1,0,0,39.8362,-86.1752
3/7/20,"Middlesex County, MA",United States,1,0,0,41.912,-70.7168
3/7/20,"Pierce County, WA",United States,1,0,0,47.0676,-122.1295
3/7/20,"Plymouth County, MA",United States,1,0,0,42.1615,-70.7928
3/7/20,"Ramsey County, MN",United States,1,0,0,44.9964,-93.0616
3/7/20,"San Antonio, TX",United States,1,0,0,29.4241,-98.4936
3/7/20,"Santa Cruz County, CA",United States,1,0,0,36.9741,-122.0308
3/7/20,"Santa Rosa County, FL",United States,1,0,0,30.769,-86.9824
3/7/20,"Sarasota, FL",United States,1,0,0,27.3364,-82.5307
3/7/20,"Sonoma County, CA",United States,1,0,0,38.578,-122.9888
3/7/20,"Tulsa County, OK",United States,1,0,0,36.1593,-95.941
3/7/20,"Umatilla, OR",United States,1,0,0,45.775,-118.7606
3/7/20,"Wake County, NC",United States,1,0,0,35.8032,-78.5661
3/7/20,"Washoe County, NV",United States,1,0,0,40.5608,-119.6035
3/7/20,"Wayne County, PA",United States,1,0,0,41.6739,-75.2479
3/7/20,"Williamson County, TN",United States,1,0,0,35.9179,-86.8622
3/7/20,"Yolo County, CA",United States,1,0,0,38.7646,-121.9018
3/7/20,From Diamond Princess,Australia,0,0,0,35.4437,139.638
3/7/20,Northern Territory,Australia,0,0,0,-12.4634,130.8456
3/7/20,"Lackland, TX (From Diamond Princess)",United States,0,0,0,29.3829,-98.6134
3/7/20,"Montgomery County, TX",United States,0,0,0,30.3213,-95.4778
3/7/20,"Omaha, NE (From Diamond Princess)",United States,0,0,0,41.2545,-95.9758
3/7/20,"Travis, CA (From Diamond Princess)",United States,0,0,0,38.2721,-121.9399
3/7/20,Daegu,South Korea,7041,44,135,36,128
3/7/20,Madrid,Spain,500,10,30,40,-4
3/7/20,Kandy,Sri Lanka,1,0,1,7,81
3/7/20,Sundsvall,Sweden,161,0,0,63,16
3/7/20,Unknown,Switzerland,268,1,3,46.8182,8.2275
3/7/20,Lop Buri,Thailand,50,1,31,15,101
3/7/20,Unknown,Togo,1,0,0,8.6195,0.8248
3/7/20,Unknown,Tunisia,1,0,0,34,9
3/7/20,Liverpool,United Kingdom,206,2,18,55,-3
3/7/20,Unknown,Ukraine,1,0,0,48.3794,31.1656
3/7/20,Abu Dhabi,United Arab Emirates,45,0,7,24,54
3/7/20,Unknown,Vatican City,1,0,0,41.9029,12.4534
3/7/20,Quang Ha,Vietnam,18,0,16,16,108
3/6/20,Unknown,Afghanistan,1,0,0,33,65
3/6/20,Unknown,Algeria,17,0,0,28.0339,1.6596
3/6/20,Unknown,Andorra,1,0,0,42.5063,1.5218
3/6/20,Unknown,Argentina,2,0,0,-38.4161,-63.6167
3/6/20,Unknown,Armenia,1,0,0,40.0691,45.0382
3/6/20,Unknown,Austria,55,0,0,47.5162,14.5501
3/6/20,Unknown,Azerbaijan,6,0,0,40.1431,47.5769
3/6/20,Unknown,Bahrain,60,0,4,26.0275,50.55
3/6/20,Unknown,Belarus,6,0,0,53.7098,27.9534
3/6/20,Brussels,Belgium,109,0,1,50.8333,4
3/6/20,Unknown,Bhutan,1,0,0,27.5142,90.4336
3/6/20,Unknown,Bosnia and Herzegovina,2,0,0,43.9159,17.6791
3/6/20,Unknown,Brazil,13,0,0,-14.235,-51.9253
3/6/20,Phnom Penh,Cambodia,1,0,1,11.55,104.9167
3/6/20,Unknown,Cameroon,1,0,0,3.848,11.5021
3/6/20,Unknown,Chile,4,0,0,-35.6751,-71.543
3/6/20,Unknown,Colombia,1,0,0,4.5709,-74.2973
3/6/20,Unknown,Costa Rica,1,0,0,9.7489,-83.7534
3/6/20,Unknown,Croatia,11,0,0,45.1667,15.5
3/6/20,Unknown,Denmark,23,0,1,56.2639,9.5018
3/6/20,Unknown,Dominican Republic,2,0,0,18.7357,-70.1627
3/6/20,Unknown,Ecuador,13,0,0,-1.8312,-78.1834
3/6/20,Unknown,Egypt,15,0,1,26,30
3/6/20,Unknown,Estonia,10,0,0,58.5953,25.0136
3/6/20,Unknown,Faroe Islands,1,0,0,61.8926,-6.9118
3/6/20,Kajaani,Finland,15,0,1,64,26
3/6/20,Orleans,France,653,9,12,47,2
3/6/20,Unknown,Georgia,4,0,0,42.3154,43.3569
3/6/20,Kassel,Germany,670,0,17,51,9
3/6/20,Unknown,Gibraltar,1,0,0,36.1408,-5.3536
3/6/20,Unknown,Greece,45,0,0,39.0742,21.8243
3/6/20,Unknown,Hungary,2,0,0,47.1625,19.5033
3/6/20,Unknown,Iceland,43,0,0,64.9631,-19.0208
3/6/20,Nagpur,India,31,0,3,21,78
3/6/20,Unknown,Indonesia,4,0,0,-0.7893,113.9213
3/6/20,Unknown,Iraq,40,3,0,33,44
3/6/20,Unknown,Ireland,18,0,0,53.1424,-7.6921
3/6/20,Unknown,Israel,21,0,2,31,35
3/6/20,Arezzo,Italy,4636,197,523,43,12
3/6/20,Unknown,Jordan,1,0,0,31.24,36.51
3/6/20,Unknown,Kuwait,58,0,0,29.5,47.75
3/6/20,Unknown,Latvia,1,0,0,56.8796,24.6032
3/6/20,Unknown,Lebanon,22,0,1,33.8547,35.8623
3/6/20,Unknown,Liechtenstein,1,0,0,47.14,9.55
3/6/20,Unknown,Lithuania,1,0,0,55.1694,23.8813
3/6/20,Unknown,Luxembourg,2,0,0,49.8144,6.1317
3/6/20,Sibu,Malaysia,83,0,22,2.5,112.5
3/6/20,Fresnillo,Mexico,6,0,1,23,-102
3/6/20,Unknown,Monaco,1,0,0,43.7333,7.4167
3/6/20,Unknown,Morocco,2,0,0,31.7917,-7.0926
3/6/20,Pokhara,Nepal,1,0,1,28.1667,84.25
3/6/20,Unknown,Netherlands,128,1,0,52.1326,5.2913
3/6/20,Unknown,New Zealand,4,0,0,-40.9006,174.886
3/6/20,Unknown,Nigeria,1,0,0,9.082,8.6753
3/6/20,Unknown,North Macedonia,3,0,0,41.6086,21.7453
3/6/20,Unknown,Norway,108,0,0,60.472,8.4689
3/6/20,Dawwah,Oman,16,0,2,21,57
3/6/20,Quetta,Pakistan,6,0,0,30.3753,69.3451
3/6/20,Unknown,Palestine,16,0,0,31.9522,35.2332
3/6/20,Unknown,Peru,1,0,0,-9.19,-75.0152
3/6/20,Boac,Philippines,5,1,1,13,122
3/6/20,Unknown,Poland,5,0,0,51.9194,19.1451
3/6/20,Unknown,Portugal,13,0,0,39.3999,-8.2245
3/6/20,Unknown,Qatar,8,0,0,25.3548,51.1839
3/6/20,Unknown,Romania,9,0,1,46,25
3/6/20,Unknown,Russia,13,0,2,60,90
3/6/20,Unknown,Saint Barthelemy,3,0,0,17.9,-62.8333
3/6/20,Unknown,San Marino,21,1,0,43.9424,12.4578
3/6/20,Hubei,China,67592,2931,42033,30.9756,112.2707
3/6/20,Khomeyni Shahr,Iran,4747,124,913,32,53
3/6/20,Guangdong,China,1352,7,1216,23.3417,113.4244
3/6/20,Henan,China,1272,22,1244,33.882,113.614
3/6/20,Zhejiang,China,1215,1,1147,29.1832,120.0934
3/6/20,Hunan,China,1018,4,955,27.6104,111.7088
3/6/20,Anhui,China,990,6,979,31.8257,117.2264
3/6/20,Jiangxi,China,935,1,909,27.614,115.7221
3/6/20,Shandong,China,758,6,618,36.3427,118.1498
3/6/20,Diamond Princess cruise ship,Others,696,6,40,35.4437,139.638
3/6/20,Jiangsu,China,631,0,594,32.9711,119.455
3/6/20,Chongqing,China,576,6,513,30.0572,107.874
3/6/20,Sichuan,China,539,3,442,30.6171,102.7103
3/6/20,Heilongjiang,China,481,13,396,47.862,127.7615
3/6/20,Beijing,China,422,8,299,40.1824,116.4142
3/6/20,Tokyo,Japan,420,6,46,36,138
3/6/20,Shanghai,China,342,3,306,31.202,121.4491
3/6/20,Hebei,China,318,6,305,38.0428,114.5149
3/6/20,Fujian,China,296,1,284,26.0789,117.9874
3/6/20,Guangxi,China,252,2,217,23.8298,108.7881
3/6/20,Shaanxi,China,245,1,226,35.1917,108.8701
3/6/20,Yunnan,China,174,2,170,24.974,101.487
3/6/20,Hainan,China,168,6,158,19.1959,109.7453
3/6/20,Unknown,Saudi Arabia,5,0,0,24,45
3/6/20,Guizhou,China,146,2,114,26.8154,106.8748
3/6/20,Tianjin,China,136,3,128,39.3054,117.323
3/6/20,Shanxi,China,133,0,126,37.5777,112.2922
3/6/20,Liaoning,China,125,1,106,41.2956,122.6085
3/6/20,Gansu,China,119,2,87,36.0611,103.8343
3/6/20,Hong Kong,Hong Kong,107,2,46,22.3,114.2
3/6/20,Jilin,China,93,1,90,43.6661,126.1923
3/6/20,Xinjiang,China,76,3,71,41.1129,85.2401
3/6/20,Inner Mongolia,China,75,1,65,44.0935,113.9448
3/6/20,Ningxia,China,75,0,71,37.2692,106.1655
3/6/20,"King County, WA",United States,58,12,1,47.548,-121.9836
3/6/20,Unknown,Senegal,4,0,0,14.4974,-14.4524
3/6/20,Taiwan,Taiwan,45,1,12,23.7,121
3/6/20,Unassigned Location (From Diamond Princess),United States,45,0,0,35.4437,139.638
3/6/20,New South Wales,Australia,26,1,4,-33.8688,151.2093
3/6/20,"Toronto, ON",Canada,24,0,2,43.6532,-79.3832
3/6/20,British Columbia,Canada,21,0,3,49.2827,-123.1207
3/6/20,Unknown,Serbia,1,0,0,44.0165,21.0059
3/6/20,"Santa Clara, CA",United States,20,0,1,37.3541,-121.9552
3/6/20,"Snohomish County, WA",United States,19,1,0,48.033,-121.8339
3/6/20,"Westchester County, NY",United States,19,0,0,41.122,-73.7949
3/6/20,Prague,Czech Republic,18,0,0,49.8175,15.473
3/6/20,Qinghai,China,18,0,18,35.7452,95.9956
3/6/20,"New York County, NY",United States,16,0,0,40.7128,-74.006
3/6/20,Queensland,Australia,13,0,8,-28.0167,153.4
3/6/20,"Los Angeles, CA",United States,13,0,0,34.0522,-118.2437
3/6/20,Victoria,Australia,10,0,7,-37.8136,144.9631
3/6/20,Macau,Macau,10,0,10,22.1667,113.55
3/6/20,South Australia,Australia,7,0,2,-34.9285,138.6007
3/6/20,"Cook County, IL",United States,5,0,2,41.7377,-87.6976
3/6/20,"Placer County, CA",United States,5,1,0,39.0916,-120.8039
3/6/20,"Unassigned Location, WA",United States,5,0,0,47.7511,-120.7401
3/6/20,Western Australia,Australia,3,1,0,-31.9505,115.8605
3/6/20,"Contra Costa County, CA",United States,3,0,0,37.8534,-121.9018
3/6/20,"Harris County, TX",United States,3,0,0,29.7752,-95.3103
3/6/20,"Montgomery County, MD",United States,3,0,0,39.1547,-77.2405
3/6/20,"Orange County, CA",United States,3,0,0,33.7879,-117.8531
3/6/20,"San Diego County, CA",United States,3,0,1,32.7157,-117.1611
3/6/20,"Suffolk County, MA",United States,3,0,1,42.3601,-71.0589
3/6/20,"Montreal, QC",Canada,2,0,0,45.5017,-73.5673
3/6/20,"Norfolk County, MA",United States,2,0,0,42.1767,-71.1449
3/6/20,"Bergen County, NJ",United States,2,0,0,40.9263,-74.077
3/6/20,"Denver County, CO",United States,2,0,0,39.7392,-104.9903
3/6/20,"Fulton County, GA",United States,2,0,0,33.8034,-84.3963
3/6/20,"Grafton County, NH",United States,2,0,0,43.9088,-71.826
3/6/20,"Hillsborough, FL",United States,2,0,0,27.9904,-82.3018
3/6/20,"Maricopa County, AZ",United States,2,0,0,33.2918,-112.4291
3/6/20,"Providence, RI",United States,2,0,0,41.824,-71.4128
3/6/20,"Sacramento County, CA",United States,2,0,0,38.4747,-121.3542
3/6/20,"San Benito, CA",United States,2,0,0,36.5761,-120.9876
3/6/20,"San Francisco County, CA",United States,2,0,0,37.7749,-122.4194
3/6/20,"San Mateo, CA",United States,2,0,0,37.563,-122.3255
3/6/20,"Summit County, CO",United States,2,0,0,39.5912,-106.064
3/6/20,"Washington County, OR",United States,2,0,0,45.547,-123.1386
3/6/20,Tasmania,Australia,1,0,0,-41.4545,145.9707
3/6/20,"Calgary, Alberta",Canada,1,0,0,51.0447,-114.0719
3/6/20,"London, ON",Canada,1,0,1,42.9849,-81.2453
3/6/20,Tibet,China,1,0,1,31.6927,88.0924
3/6/20,"Berkeley, CA",United States,1,0,0,37.8715,-122.273
3/6/20,"Chatham County, NC",United States,1,0,0,35.7211,-79.1781
3/6/20,"Clark County, NV",United States,1,0,0,36.0796,-115.094
3/6/20,"Delaware County, PA",United States,1,0,0,39.9078,-75.3879
3/6/20,"Douglas County, NE",United States,1,0,0,41.3148,-96.1951
3/6/20,"Fayette County, KY",United States,1,0,0,38.0606,-84.4803
3/6/20,"Floyd County, GA",United States,1,0,0,34.2829,-85.2308
3/6/20,"Fort Bend County, TX",United States,1,0,0,29.5693,-95.8143
3/6/20,"Grant County, WA",United States,1,0,0,47.1981,-119.3732
3/6/20,"Humboldt County, CA",United States,1,0,0,40.745,-123.8695
3/6/20,"Madison, WI",United States,1,0,1,43.0731,-89.4012
3/6/20,"Marion County, IN",United States,1,0,0,39.8362,-86.1752
3/6/20,"Middlesex County, MA",United States,1,0,0,42.4672,-71.2874
3/6/20,"Nassau County, NY",United States,1,0,0,40.6546,-73.5594
3/6/20,"Norwell County, MA",United States,1,0,0,42.1615,-70.7928
3/6/20,"Ramsey County, MN",United States,1,0,0,44.9964,-93.0616
3/6/20,"San Antonio, TX",United States,1,0,0,29.4241,-98.4936
3/6/20,"Santa Rosa County, FL",United States,1,0,0,30.769,-86.9824
3/6/20,"Sarasota, FL",United States,1,0,0,27.3364,-82.5307
3/6/20,"Sonoma County, CA",United States,1,0,0,38.578,-122.9888
3/6/20,"Tempe, AZ",United States,1,0,1,33.4255,-111.94
3/6/20,"Umatilla, OR",United States,1,0,0,45.775,-118.7606
3/6/20,"Wake County, NC",United States,1,0,0,35.8032,-78.5661
3/6/20,"Washoe County, NV",United States,1,0,0,40.5608,-119.6035
3/6/20,"Wayne County, PA",United States,1,0,0,41.6739,-75.2479
3/6/20,"Williamson County, TN",United States,1,0,0,35.9179,-86.8622
3/6/20,"Yolo County, CA",United States,1,0,0,38.7646,-121.9018
3/6/20,From Diamond Princess,Australia,0,0,0,35.4437,139.638
3/6/20,Northern Territory,Australia,0,0,0,-12.4634,130.8456
3/6/20,"Lackland, TX (From Diamond Princess)",United States,0,0,0,29.3829,-98.6134
3/6/20,"Omaha, NE (From Diamond Princess)",United States,0,0,0,41.2545,-95.9758
3/6/20,"Travis, CA (From Diamond Princess)",United States,0,0,0,38.2721,-121.9399
3/6/20,Singapore,Singapore,130,0,78,1.2833,103.8333
3/6/20,Unknown,Slovakia,1,0,0,48.669,19.699
3/6/20,Unknown,Slovenia,7,0,0,46.1512,14.9955
3/6/20,Unknown,South Africa,1,0,0,-30.5595,22.9375
3/6/20,Daegu,South Korea,6593,42,135,36,128
3/6/20,Madrid,Spain,400,5,2,40,-4
3/6/20,Kandy,Sri Lanka,1,0,1,7,81
3/6/20,Sundsvall,Sweden,101,0,0,63,16
3/6/20,Unknown,Switzerland,214,1,3,46.8182,8.2275
3/6/20,Lop Buri,Thailand,48,1,31,15,101
3/6/20,Unknown,Togo,1,0,0,8.6195,0.8248
3/6/20,Unknown,Tunisia,1,0,0,34,9
3/6/20,Liverpool,United Kingdom,163,2,8,55,-3
3/6/20,Unknown,Ukraine,1,0,0,48.3794,31.1656
3/6/20,Abu Dhabi,United Arab Emirates,29,0,5,24,54
3/6/20,Unknown,Vatican City,1,0,0,41.9029,12.4534
3/6/20,Quang Ha,Vietnam,16,0,16,16,108
3/5/20,Unknown,Afghanistan,1,0,0,33,65
3/5/20,Unknown,Algeria,12,0,0,28.0339,1.6596
3/5/20,Unknown,Andorra,1,0,0,42.5063,1.5218
3/5/20,Unknown,Argentina,1,0,0,-38.4161,-63.6167
3/5/20,Unknown,Armenia,1,0,0,40.0691,45.0382
3/5/20,Unknown,Austria,41,0,0,47.5162,14.5501
3/5/20,Unknown,Azerbaijan,6,0,0,40.1431,47.5769
3/5/20,Unknown,Bahrain,55,0,0,26.0275,50.55
3/5/20,Unknown,Belarus,6,0,0,53.7098,27.9534
3/5/20,Brussels,Belgium,50,0,1,50.8333,4
3/5/20,Unknown,Bosnia and Herzegovina,2,0,0,43.9159,17.6791
3/5/20,Unknown,Brazil,4,0,0,-14.235,-51.9253
3/5/20,Phnom Penh,Cambodia,1,0,1,11.55,104.9167
3/5/20,Unknown,Chile,4,0,0,-35.6751,-71.543
3/5/20,Unknown,Croatia,10,0,0,45.1667,15.5
3/5/20,Unknown,Denmark,10,0,0,56.2639,9.5018
3/5/20,Unknown,Dominican Republic,1,0,0,18.7357,-70.1627
3/5/20,Unknown,Ecuador,13,0,0,-1.8312,-78.1834
3/5/20,Unknown,Egypt,3,0,1,26,30
3/5/20,Unknown,Estonia,3,0,0,58.5953,25.0136
3/5/20,Unknown,Faroe Islands,1,0,0,61.8926,-6.9118
3/5/20,Kajaani,Finland,12,0,1,64,26
3/5/20,Orleans,France,377,6,12,47,2
3/5/20,Unknown,Georgia,4,0,0,42.3154,43.3569
3/5/20,Kassel,Germany,482,0,16,51,9
3/5/20,Unknown,Gibraltar,1,0,0,36.1408,-5.3536
3/5/20,Unknown,Greece,31,0,0,39.0742,21.8243
3/5/20,Unknown,Hungary,2,0,0,47.1625,19.5033
3/5/20,Unknown,Iceland,34,0,0,64.9631,-19.0208
3/5/20,Nagpur,India,30,0,3,21,78
3/5/20,Unknown,Indonesia,2,0,0,-0.7893,113.9213
3/5/20,Unknown,Iraq,35,2,0,33,44
3/5/20,Unknown,Ireland,6,0,0,53.1424,-7.6921
3/5/20,Unknown,Israel,16,0,1,31,35
3/5/20,Arezzo,Italy,3858,148,414,43,12
3/5/20,Unknown,Jordan,1,0,0,31.24,36.51
3/5/20,Unknown,Kuwait,58,0,0,29.5,47.75
3/5/20,Unknown,Latvia,1,0,0,56.8796,24.6032
3/5/20,Unknown,Lebanon,16,0,1,33.8547,35.8623
3/5/20,Unknown,Liechtenstein,1,0,0,47.14,9.55
3/5/20,Unknown,Lithuania,1,0,0,55.1694,23.8813
3/5/20,Unknown,Luxembourg,1,0,0,49.8144,6.1317
3/5/20,Sibu,Malaysia,50,0,22,2.5,112.5
3/5/20,Fresnillo,Mexico,5,0,1,23,-102
3/5/20,Unknown,Monaco,1,0,0,43.7333,7.4167
3/5/20,Unknown,Morocco,2,0,0,31.7917,-7.0926
3/5/20,Pokhara,Nepal,1,0,1,28.1667,84.25
3/5/20,Unknown,Netherlands,82,0,0,52.1326,5.2913
3/5/20,Unknown,New Zealand,3,0,0,-40.9006,174.886
3/5/20,Unknown,Nigeria,1,0,0,9.082,8.6753
3/5/20,Unknown,North Macedonia,1,0,0,41.6086,21.7453
3/5/20,Unknown,Norway,87,0,0,60.472,8.4689
3/5/20,Dawwah,Oman,16,0,2,21,57
3/5/20,Quetta,Pakistan,5,0,0,30.3753,69.3451
3/5/20,Unknown,Palestine,4,0,0,31.9522,35.2332
3/5/20,Boac,Philippines,3,1,1,13,122
3/5/20,Unknown,Poland,1,0,0,51.9194,19.1451
3/5/20,Unknown,Portugal,8,0,0,39.3999,-8.2245
3/5/20,Unknown,Qatar,8,0,0,25.3548,51.1839
3/5/20,Unknown,Romania,6,0,1,46,25
3/5/20,Hubei,China,67466,2902,40592,30.9756,112.2707
3/5/20,Khomeyni Shahr,Iran,3513,107,739,32,53
3/5/20,Guangdong,China,1351,7,1181,23.3417,113.4244
3/5/20,Henan,China,1272,22,1239,33.882,113.614
3/5/20,Zhejiang,China,1215,1,1124,29.1832,120.0934
3/5/20,Hunan,China,1018,4,938,27.6104,111.7088
3/5/20,Anhui,China,990,6,970,31.8257,117.2264
3/5/20,Jiangxi,China,935,1,901,27.614,115.7221
3/5/20,Shandong,China,758,6,578,36.3427,118.1498
3/5/20,Diamond Princess cruise ship,Others,706,6,10,35.4437,139.638
3/5/20,Jiangsu,China,631,0,583,32.9711,119.455
3/5/20,Chongqing,China,576,6,512,30.0572,107.874
3/5/20,Sichuan,China,539,3,425,30.6171,102.7103
3/5/20,Heilongjiang,China,481,13,379,47.862,127.7615
3/5/20,Beijing,China,418,8,297,40.1824,116.4142
3/5/20,Tokyo,Japan,360,6,43,36,138
3/5/20,Shanghai,China,339,3,303,31.202,121.4491
3/5/20,Hebei,China,318,6,304,38.0428,114.5149
3/5/20,Fujian,China,296,1,277,26.0789,117.9874
3/5/20,Guangxi,China,252,2,214,23.8298,108.7881
3/5/20,Shaanxi,China,245,1,224,35.1917,108.8701
3/5/20,Yunnan,China,174,2,169,24.974,101.487
3/5/20,Hainan,China,168,6,158,19.1959,109.7453
3/5/20,Guizhou,China,146,2,114,26.8154,106.8748
3/5/20,Tianjin,China,136,3,128,39.3054,117.323
3/5/20,Shanxi,China,133,0,126,37.5777,112.2922
3/5/20,Liaoning,China,125,1,106,41.2956,122.6085
3/5/20,Hong Kong,Hong Kong,105,2,43,22.3,114.2
3/5/20,Gansu,China,102,2,87,36.0611,103.8343
3/5/20,Jilin,China,93,1,88,43.6661,126.1923
3/5/20,Xinjiang,China,76,3,70,41.1129,85.2401
3/5/20,Inner Mongolia,China,75,1,65,44.0935,113.9448
3/5/20,Ningxia,China,75,0,69,37.2692,106.1655
3/5/20,"King County, WA",United States,51,10,1,47.548,-121.9836
3/5/20,Unassigned Location (From Diamond Princess),United States,45,0,0,35.4437,139.638
3/5/20,Taiwan,Taiwan,44,1,12,23.7,121
3/5/20,New South Wales,Australia,22,1,4,-33.8688,151.2093
3/5/20,"Toronto, ON",Canada,21,0,2,43.6532,-79.3832
3/5/20,"Santa Clara, CA",United States,20,0,1,37.3541,-121.9552
3/5/20,Qinghai,China,18,0,18,35.7452,95.9956
3/5/20,"Snohomish County, WA",United States,18,1,0,48.033,-121.8339
3/5/20,"Westchester County, NY",United States,18,0,0,41.122,-73.7949
3/5/20,Queensland,Australia,13,0,8,-28.0167,153.4
3/5/20,British Columbia,Canada,13,0,3,49.2827,-123.1207
3/5/20,Prague,Czech Republic,12,0,0,49.8175,15.473
3/5/20,"Los Angeles, CA",United States,11,0,0,34.0522,-118.2437
3/5/20,Victoria,Australia,10,0,7,-37.8136,144.9631
3/5/20,Macau,Macau,10,0,9,22.1667,113.55
3/5/20,South Australia,Australia,5,0,2,-34.9285,138.6007
3/5/20,"Cook County, IL",United States,5,0,2,41.7377,-87.6976
3/5/20,"New York City, NY",United States,4,0,0,40.7128,-74.006
3/5/20,Western Australia,Australia,3,1,0,-31.9505,115.8605
3/5/20,Unknown,Russia,4,0,2,60,90
3/5/20,"Orange County, CA",United States,3,0,0,33.7879,-117.8531
3/5/20,"San Diego County, CA",United States,3,0,1,32.7157,-117.1611
3/5/20,"Montreal, QC",Canada,2,0,0,45.5017,-73.5673
3/5/20,"Bergen County, NJ",United States,2,0,0,40.9263,-74.077
3/5/20,"Fulton County, GA",United States,2,0,0,33.8034,-84.3963
3/5/20,"Grafton County, NH",United States,2,0,0,43.9088,-71.826
3/5/20,"Harris County, TX",United States,2,0,0,29.7752,-95.3103
3/5/20,"Hillsborough, FL",United States,2,0,0,27.9904,-82.3018
3/5/20,"Placer County, CA",United States,2,1,0,39.0916,-120.8039
3/5/20,"Providence, RI",United States,2,0,0,41.824,-71.4128
3/5/20,"Sacramento County, CA",United States,2,0,0,38.4747,-121.3542
3/5/20,"San Benito, CA",United States,2,0,0,36.5761,-120.9876
3/5/20,"San Francisco County, CA",United States,2,0,0,37.7749,-122.4194
3/5/20,"San Mateo, CA",United States,2,0,0,37.563,-122.3255
3/5/20,"Washington County, OR",United States,2,0,0,45.547,-123.1386
3/5/20,Unknown,Saint Barthelemy,3,0,0,17.9,-62.8333
3/5/20,Northern Territory,Australia,1,0,0,-12.4634,130.8456
3/5/20,Tasmania,Australia,1,0,0,-41.4545,145.9707
3/5/20,"London, ON",Canada,1,0,1,42.9849,-81.2453
3/5/20,Tibet,China,1,0,1,31.6927,88.0924
3/5/20,Unknown,San Marino,21,1,0,43.9424,12.4578
3/5/20,"Norfolk County, MA",United States,1,0,0,42.1767,-71.1449
3/5/20,"Berkeley, CA",United States,1,0,0,37.8715,-122.273
3/5/20,"Boston, MA",United States,1,0,1,42.3601,-71.0589
3/5/20,"Clark County, NV",United States,1,0,0,36.0796,-115.094
3/5/20,"Contra Costa County, CA",United States,1,0,0,37.8534,-121.9018
3/5/20,"Fort Bend County, TX",United States,1,0,0,29.5693,-95.8143
3/5/20,"Grant County, WA",United States,1,0,0,47.1981,-119.3732
3/5/20,"Humboldt County, CA",United States,1,0,0,40.745,-123.8695
3/5/20,"Madison, WI",United States,1,0,1,43.0731,-89.4012
3/5/20,"Maricopa County, AZ",United States,1,0,0,33.2918,-112.4291
3/5/20,"Queens County, NY",United States,1,0,0,40.7282,-73.7949
3/5/20,"San Antonio, TX",United States,1,0,0,29.4241,-98.4936
3/5/20,"Santa Rosa County, FL",United States,1,0,0,30.769,-86.9824
3/5/20,"Sarasota, FL",United States,1,0,0,27.3364,-82.5307
3/5/20,"Sonoma County, CA",United States,1,0,0,38.578,-122.9888
3/5/20,"Tempe, AZ",United States,1,0,1,33.4255,-111.94
3/5/20,"Umatilla, OR",United States,1,0,0,45.775,-118.7606
3/5/20,"Wake County, NC",United States,1,0,0,35.8032,-78.5661
3/5/20,"Williamson County, TN",United States,1,0,0,35.9179,-86.8622
3/5/20,From Diamond Princess,Australia,0,0,0,35.4437,139.638
3/5/20,"Lackland, TX (From Diamond Princess)",United States,0,0,0,29.3829,-98.6134
3/5/20,"Omaha, NE (From Diamond Princess)",United States,0,0,0,41.2545,-95.9758
3/5/20,"Travis, CA (From Diamond Princess)",United States,0,0,0,38.2721,-121.9399
3/5/20,Unknown,Saudi Arabia,5,0,0,24,45
3/5/20,Unknown,Senegal,4,0,0,14.4974,-14.4524
3/5/20,Singapore,Singapore,117,0,78,1.2833,103.8333
3/5/20,Unknown,Slovenia,2,0,0,46.1512,14.9955
3/5/20,Unknown,South Africa,1,0,0,-30.5595,22.9375
3/5/20,Daegu,South Korea,6088,35,41,36,128
3/5/20,Madrid,Spain,259,3,2,40,-4
3/5/20,Kandy,Sri Lanka,1,0,1,7,81
3/5/20,Sundsvall,Sweden,94,0,0,63,16
3/5/20,Unknown,Switzerland,114,1,3,46.8182,8.2275
3/5/20,Lop Buri,Thailand,47,1,31,15,101
3/5/20,Unknown,Tunisia,1,0,0,34,9
3/5/20,Liverpool,United Kingdom,115,1,8,55,-3
3/5/20,Unknown,Ukraine,1,0,0,48.3794,31.1656
3/5/20,Abu Dhabi,United Arab Emirates,29,0,5,24,54
3/5/20,Quang Ha,Vietnam,16,0,16,16,108
3/4/20,Unknown,Afghanistan,1,0,0,33,65
3/4/20,Unknown,Algeria,12,0,0,28.0339,1.6596
3/4/20,Unknown,Andorra,1,0,0,42.5063,1.5218
3/4/20,Unknown,Argentina,1,0,0,-38.4161,-63.6167
3/4/20,Unknown,Armenia,1,0,0,40.0691,45.0382
3/4/20,Unknown,Austria,29,0,0,47.5162,14.5501
3/4/20,Unknown,Azerbaijan,3,0,0,40.1431,47.5769
3/4/20,Unknown,Bahrain,52,0,0,26.0275,50.55
3/4/20,Unknown,Belarus,6,0,0,53.7098,27.9534
3/4/20,Brussels,Belgium,23,0,1,50.8333,4
3/4/20,Unknown,Brazil,4,0,0,-14.235,-51.9253
3/4/20,Phnom Penh,Cambodia,1,0,1,11.55,104.9167
3/4/20,Unknown,Chile,1,0,0,-35.6751,-71.543
3/4/20,Unknown,Croatia,10,0,0,45.1667,15.5
3/4/20,Unknown,Denmark,10,0,0,56.2639,9.5018
3/4/20,Unknown,Dominican Republic,1,0,0,18.7357,-70.1627
3/4/20,Unknown,Ecuador,10,0,0,-1.8312,-78.1834
3/4/20,Unknown,Egypt,2,0,1,26,30
3/4/20,Unknown,Estonia,2,0,0,58.5953,25.0136
3/4/20,Unknown,Faroe Islands,1,0,0,61.8926,-6.9118
3/4/20,Kajaani,Finland,6,0,1,64,26
3/4/20,Orleans,France,285,4,12,47,2
3/4/20,Unknown,Georgia,3,0,0,42.3154,43.3569
3/4/20,Kassel,Germany,262,0,16,51,9
3/4/20,Unknown,Gibraltar,1,0,0,36.1408,-5.3536
3/4/20,Unknown,Greece,9,0,0,39.0742,21.8243
3/4/20,Unknown,Hungary,2,0,0,47.1625,19.5033
3/4/20,Unknown,Iceland,26,0,0,64.9631,-19.0208
3/4/20,Nagpur,India,28,0,3,21,78
3/4/20,Unknown,Indonesia,2,0,0,-0.7893,113.9213
3/4/20,Unknown,Iraq,35,2,0,33,44
3/4/20,Unknown,Ireland,6,0,0,53.1424,-7.6921
3/4/20,Unknown,Israel,15,0,1,31,35
3/4/20,Arezzo,Italy,3089,107,276,43,12
3/4/20,Unknown,Jordan,1,0,0,31.24,36.51
3/4/20,Unknown,Kuwait,56,0,0,29.5,47.75
3/4/20,Unknown,Latvia,1,0,0,56.8796,24.6032
3/4/20,Unknown,Lebanon,13,0,1,33.8547,35.8623
3/4/20,Unknown,Liechtenstein,1,0,0,47.14,9.55
3/4/20,Unknown,Lithuania,1,0,0,55.1694,23.8813
3/4/20,Unknown,Luxembourg,1,0,0,49.8144,6.1317
3/4/20,Sibu,Malaysia,50,0,22,2.5,112.5
3/4/20,Fresnillo,Mexico,5,0,1,23,-102
3/4/20,Unknown,Monaco,1,0,0,43.7333,7.4167
3/4/20,Unknown,Morocco,1,0,0,31.7917,-7.0926
3/4/20,Pokhara,Nepal,1,0,1,28.1667,84.25
3/4/20,Unknown,Netherlands,38,0,0,52.1326,5.2913
3/4/20,Unknown,New Zealand,3,0,0,-40.9006,174.886
3/4/20,Unknown,Nigeria,1,0,0,9.082,8.6753
3/4/20,Unknown,North Macedonia,1,0,0,41.6086,21.7453
3/4/20,Unknown,Norway,56,0,0,60.472,8.4689
3/4/20,Dawwah,Oman,15,0,2,21,57
3/4/20,Quetta,Pakistan,5,0,0,30.3753,69.3451
3/4/20,Hubei,China,67332,2871,38557,30.9756,112.2707
3/4/20,Khomeyni Shahr,Iran,2922,92,552,32,53
3/4/20,Guangdong,China,1350,7,1133,23.3417,113.4244
3/4/20,Henan,China,1272,22,1234,33.882,113.614
3/4/20,Zhejiang,China,1213,1,1114,29.1832,120.0934
3/4/20,Hunan,China,1018,4,916,27.6104,111.7088
3/4/20,Anhui,China,990,6,956,31.8257,117.2264
3/4/20,Jiangxi,China,935,1,884,27.614,115.7221
3/4/20,Shandong,China,758,6,516,36.3427,118.1498
3/4/20,Diamond Princess cruise ship,Others,706,6,10,35.4437,139.638
3/4/20,Jiangsu,China,631,0,577,32.9711,119.455
3/4/20,Chongqing,China,576,6,502,30.0572,107.874
3/4/20,Sichuan,China,538,3,406,30.6171,102.7103
3/4/20,Heilongjiang,China,480,13,373,47.862,127.7615
3/4/20,Beijing,China,418,8,297,40.1824,116.4142
3/4/20,Shanghai,China,338,3,298,31.202,121.4491
3/4/20,Tokyo,Japan,331,6,43,36,138
3/4/20,Hebei,China,318,6,301,38.0428,114.5149
3/4/20,Fujian,China,296,1,270,26.0789,117.9874
3/4/20,Guangxi,China,252,2,210,23.8298,108.7881
3/4/20,Shaanxi,China,245,1,223,35.1917,108.8701
3/4/20,Yunnan,China,174,2,169,24.974,101.487
3/4/20,Hainan,China,168,5,158,19.1959,109.7453
3/4/20,Guizhou,China,146,2,114,26.8154,106.8748
3/4/20,Tianjin,China,136,3,124,39.3054,117.323
3/4/20,Shanxi,China,133,0,124,37.5777,112.2922
3/4/20,Liaoning,China,125,1,106,41.2956,122.6085
3/4/20,Hong Kong,Hong Kong,105,2,37,22.3,114.2
3/4/20,Jilin,China,93,1,86,43.6661,126.1923
3/4/20,Gansu,China,91,2,87,36.0611,103.8343
3/4/20,Xinjiang,China,76,3,69,41.1129,85.2401
3/4/20,Inner Mongolia,China,75,1,63,44.0935,113.9448
3/4/20,Ningxia,China,75,0,69,37.2692,106.1655
3/4/20,Unassigned Location (From Diamond Princess),United States,45,0,0,35.4437,139.638
3/4/20,Taiwan,Taiwan,42,1,12,23.7,121
3/4/20,Boac,Philippines,3,1,1,13,122
3/4/20,"King County, WA",United States,31,9,1,47.548,-121.9836
3/4/20,New South Wales,Australia,22,1,4,-33.8688,151.2093
3/4/20,"Toronto, ON",Canada,19,0,2,43.6532,-79.3832
3/4/20,Qinghai,China,18,0,18,35.7452,95.9956
3/4/20,Unknown,Poland,1,0,0,51.9194,19.1451
3/4/20,British Columbia,Canada,12,0,3,49.2827,-123.1207
3/4/20,Queensland,Australia,11,0,1,-28.0167,153.4
3/4/20,"Santa Clara, CA",United States,11,0,1,37.3541,-121.9552
3/4/20,Victoria,Australia,10,0,4,-37.8136,144.9631
3/4/20,Macau,Macau,10,0,9,22.1667,113.55
3/4/20,"Westchester County, NY",United States,10,0,0,41.122,-73.7949
3/4/20,Prague,Czech Republic,8,0,0,49.8175,15.473
3/4/20,"Snohomish County, WA",United States,8,1,0,48.033,-121.8339
3/4/20,"Los Angeles, CA",United States,7,0,0,34.0522,-118.2437
3/4/20,South Australia,Australia,5,0,2,-34.9285,138.6007
3/4/20,Unknown,Portugal,5,0,0,39.3999,-8.2245
3/4/20,"Cook County, IL",United States,4,0,2,41.7377,-87.6976
3/4/20,"Orange County, CA",United States,3,0,0,33.7879,-117.8531
3/4/20,Western Australia,Australia,2,1,0,-31.9505,115.8605
3/4/20,Unknown,Qatar,8,0,0,25.3548,51.1839
3/4/20,"Fulton County, GA",United States,2,0,0,33.8034,-84.3963
3/4/20,"Grafton County, NH",United States,2,0,0,43.9088,-71.826
3/4/20,"Hillsborough, FL",United States,2,0,0,27.9904,-82.3018
3/4/20,"Placer County, CA",United States,2,1,0,39.0916,-120.8039
3/4/20,"Providence, RI",United States,2,0,0,41.824,-71.4128
3/4/20,"Sacramento County, CA",United States,2,0,0,38.4747,-121.3542
3/4/20,"San Benito, CA",United States,2,0,0,36.5761,-120.9876
3/4/20,"San Diego County, CA",United States,2,0,1,32.7157,-117.1611
3/4/20,"San Mateo, CA",United States,2,0,0,37.563,-122.3255
3/4/20,"Washington County, OR",United States,2,0,0,45.547,-123.1386
3/4/20,Northern Territory,Australia,1,0,0,-12.4634,130.8456
3/4/20,Tasmania,Australia,1,0,0,-41.4545,145.9707
3/4/20,"Montreal, QC",Canada,1,0,0,45.5017,-73.5673
3/4/20,"London, ON",Canada,1,0,1,42.9849,-81.2453
3/4/20,Tibet,China,1,0,1,31.6927,88.0924
3/4/20,Unknown,Romania,4,0,1,46,25
3/4/20,"Norfolk County, MA",United States,1,0,0,42.1767,-71.1449
3/4/20,"Berkeley, CA",United States,1,0,0,37.8715,-122.273
3/4/20,"Boston, MA",United States,1,0,1,42.3601,-71.0589
3/4/20,"Contra Costa County, CA",United States,1,0,0,37.8534,-121.9018
3/4/20,"Humboldt County, CA",United States,1,0,0,40.745,-123.8695
3/4/20,"Madison, WI",United States,1,0,1,43.0731,-89.4012
3/4/20,"Maricopa County, AZ",United States,1,0,0,33.2918,-112.4291
3/4/20,"New York City, NY",United States,1,0,0,40.7128,-74.006
3/4/20,"San Antonio, TX",United States,1,0,0,29.4241,-98.4936
3/4/20,"Sarasota, FL",United States,1,0,0,27.3364,-82.5307
3/4/20,"Sonoma County, CA",United States,1,0,0,38.578,-122.9888
3/4/20,"Tempe, AZ",United States,1,0,1,33.4255,-111.94
3/4/20,"Umatilla, OR",United States,1,0,0,45.775,-118.7606
3/4/20,"Wake County, NC",United States,1,0,0,35.8032,-78.5661
3/4/20,From Diamond Princess,Australia,0,0,0,35.4437,139.638
3/4/20,"Lackland, TX (From Diamond Princess)",United States,0,0,0,29.3829,-98.6134
3/4/20,"Omaha, NE (From Diamond Princess)",United States,0,0,0,41.2545,-95.9758
3/4/20,"Travis, CA (From Diamond Princess)",United States,0,0,0,38.2721,-121.9399
3/4/20,Unknown,Russia,3,0,2,60,90
3/4/20,Unknown,Saint Barthelemy,3,0,0,17.9,-62.8333
3/4/20,Unknown,San Marino,16,1,0,43.9424,12.4578
3/4/20,Unknown,Saudi Arabia,1,0,0,24,45
3/4/20,Unknown,Senegal,4,0,0,14.4974,-14.4524
3/4/20,Singapore,Singapore,110,0,78,1.2833,103.8333
3/4/20,Daegu,South Korea,5621,35,41,36,128
3/4/20,Madrid,Spain,222,2,2,40,-4
3/4/20,Kandy,Sri Lanka,1,0,1,7,81
3/4/20,Sundsvall,Sweden,35,0,0,63,16
3/4/20,Unknown,Switzerland,90,0,3,46.8182,8.2275
3/4/20,Lop Buri,Thailand,43,1,31,15,101
3/4/20,Unknown,Tunisia,1,0,0,34,9
3/4/20,Liverpool,United Kingdom,85,0,8,55,-3
3/4/20,Unknown,Ukraine,1,0,0,48.3794,31.1656
3/4/20,Abu Dhabi,United Arab Emirates,27,0,5,24,54
3/4/20,Quang Ha,Vietnam,16,0,16,16,108
3/3/20,Unknown,Afghanistan,1,0,0,33,65
3/3/20,Unknown,Algeria,5,0,0,28.03,1.66
3/3/20,Unknown,Andorra,1,0,0,42.51,1.52
3/3/20,Unknown,Argentina,1,0,0,-38.42,-63.62
3/3/20,Unknown,Armenia,1,0,0,40.07,45.04
3/3/20,Unknown,Austria,21,0,0,47.52,14.55
3/3/20,Unknown,Azerbaijan,3,0,0,40.14,47.58
3/3/20,Unknown,Bahrain,49,0,0,26.03,50.55
3/3/20,Unknown,Belarus,1,0,0,53.71,27.95
3/3/20,Brussels,Belgium,13,0,1,50.83,4
3/3/20,Unknown,Brazil,2,0,0,-14.24,-51.93
3/3/20,Phnom Penh,Cambodia,1,0,1,11.55,104.92
3/3/20,Unknown,Chile,1,0,0,-35.68,-71.54
3/3/20,Unknown,Croatia,9,0,0,45.17,15.5
3/3/20,Unknown,Denmark,6,0,0,56.26,9.5
3/3/20,Unknown,Dominican Republic,1,0,0,18.74,-70.16
3/3/20,Unknown,Ecuador,7,0,0,-1.83,-78.18
3/3/20,Unknown,Egypt,2,0,1,26,30
3/3/20,Unknown,Estonia,2,0,0,58.6,25.01
3/3/20,Kajaani,Finland,6,0,1,64,26
